stop_id,stop_name,stop_lat,stop_lon
STIB-0089,MONTGOMERY,50.838006,4.40897
STIB-0470F,SIMONIS,50.863666,4.329612
STIB-0471,SIMONIS,50.863732,4.329236
STIB-0472,SIMONIS,50.863543,4.329023
STIB-0473F,SIMONIS,50.863418,4.330031
STIB-0501,DE BROUCKERE,50.851494,4.352876
STIB-0506,DE BROUCKERE,50.851746,4.353415
STIB-0511,ROGIER,50.855635,4.35804
STIB-0516,ROGIER,50.855933,4.358494
STIB-0521,GARE DU NORD,50.860134,4.359946
STIB-0526,GARE DU NORD,50.860718,4.3605
STIB-0520167,1 - Gare SNCB,50.860529,4.359407
STIB-0529,ROGIER,50.856232,4.358726
STIB-0531,GARE DU NORD,50.860053,4.359662
STIB-0536,GARE DU NORD,50.860763,4.360273
STIB-0539,ROGIER,50.856097,4.358569
STIB-0601,BOURSE,50.847772,4.348972
STIB-0606,BOURSE,50.848086,4.349455
STIB-0600166,1 - Boulevard Anspach,50.848662,4.35015
STIB-0600266,2 - Boulevard Anspach,50.848662,4.35015
STIB-0600366,3 - Bourse,50.847655,4.349128
STIB-0600466,4 - Bourse,50.847655,4.349128
STIB-0600566,5 - Boulevard Anspach,50.847232,4.348688
STIB-0600666,6 - Boulevard Anspach,50.847232,4.348688
STIB-0600766,7 - Boulevard Anspach,50.84734,4.348419
STIB-0600866,8 - Boulevard Anspach,50.84734,4.348419
STIB-0600966,9 - Bourse,50.847898,4.349
STIB-0601066,10 - Bourse,50.847898,4.349
STIB-0601166,11 - Place de la Bourse,50.848248,4.349157
STIB-0601266,12 - Boulevard Anspach,50.848797,4.349952
STIB-0611,ANNEESSENS,50.844184,4.345254
STIB-0616,ANNEESSENS,50.84449,4.345736
STIB-0610165,1 - Place Anneessens,50.843789,4.345183
STIB-0610265,2 - Place Anneessens,50.843483,4.344927
STIB-0610365,3 - Rue de Tournai,50.843051,4.344558
STIB-0610465,4 - Boulevard Maurice Lemonnier,50.843222,4.344132
STIB-0610565,5 - Place Anneessens,50.843681,4.344515
STIB-0610665,6 - Place Anneessens,50.843905,4.344728
STIB-0621,LEMONNIER,50.840084,4.341039
STIB-0626,LEMONNIER,50.840399,4.341408
STIB-0620164,1 - Boulevard Maurice Lemonnier,50.840345,4.341181
STIB-0631,GARE DU MIDI,50.836497,4.337946
STIB-0636,GARE DU MIDI,50.836811,4.337407
STIB-0702,GARE DU MIDI,50.836353,4.338259
STIB-0703,PORTE DE HAL,50.832547,4.342972
STIB-0704,PARVIS ST-GILLES,50.829721,4.346537
STIB-0705,HORTA,50.825702,4.34549
STIB-0706,ALBERT,50.82109,4.343888
STIB-0711F,ALBERT,50.820802,4.340965
STIB-0712F,ALBERT,50.821021,4.341497
STIB-0722,ALBERT,50.822303,4.343561
STIB-0670161,1 - Avenue Jupiter,50.820936,4.341334
STIB-0670261,2 - Avenue Besme,50.821728,4.342015
STIB-0670361,3 - Avenue Albert,50.82153,4.342994
STIB-0723,HORTA,50.826043,4.345887
STIB-0660162,1 - Chaussée de Waterloo,50.826439,4.346469
STIB-0660262,2 - Chaussée de Waterloo,50.826115,4.345915
STIB-0724,PARVIS ST-GILLES,50.829944,4.346011
STIB-0650163,1 - Parvis de Saint-Gilles,50.830304,4.344934
STIB-0650263,2 - Rue Hôtel des Monnaies,50.829379,4.347021
STIB-0725,PORTE DE HAL,50.832821,4.342903
STIB-0726,GARE DU MIDI,50.836586,4.337506
STIB-0801,MONTGOMERY,50.837123,4.407182
STIB-0806,MONTGOMERY,50.837555,4.407424
STIB-0811,GEORGES HENRI,50.843453,4.405598
STIB-0810169,1 - Square Vergote,50.844621,4.404576
STIB-0810269,2 - Square Vergote,50.84463,4.405413
STIB-0810369,3 - Boulevard Brand Whitlock,50.842904,4.406377
STIB-0810469,4 - Boulevard Brand Whitlock,50.842832,4.405611
STIB-0816,GEORGES HENRI,50.843896,4.405406
STIB-0821,DIAMANT,50.848931,4.402428
STIB-0820168,1 - Boulevard Auguste Reyers,50.84928,4.40257
STIB-0820268,2 - Boulevard Auguste Reyers,50.849297,4.401611
STIB-0826,DIAMANT,50.849394,4.402198
STIB-0901,BOILEAU,50.832955,4.405187
STIB-0900170,1 - Boulevard Saint-Michel,50.832036,4.40441
STIB-0900270,2 - Rue Charles Legrelle,50.834085,4.405149
STIB-0900370,3 - Rue Charles Legrelle,50.834049,4.40532
STIB-0900470,4 - Rue Père E. Devroye,50.834058,4.406242
STIB-0900570,5 - Avenue Boileau,50.832305,4.405304
STIB-0906,BOILEAU,50.833663,4.405561
STIB-1000,GARE CENTRALE,50.8451,4.359617
STIB-1001,GARE CENTRALE,50.844568,4.356926
STIB-1002,POELAERT,50.838513,4.352738
STIB-1003,GARE CENTRALE,50.844659,4.359615
STIB-1005,GARE CENTRALE,50.846832,4.356626
STIB-1006,POGGE,50.866609,4.375391
STIB-1007,POGGE,50.866411,4.375226
STIB-1010,LE ROUX,50.878265,4.321409
STIB-1011,TER MEEREN,50.845423,4.501172
STIB-1014,MIROIR,50.871012,4.32447
STIB-1014F,MIROIR,50.870847,4.324577
STIB-1015,BERVOETS,50.816648,4.319873
STIB-1018,BON AIR,50.835978,4.274419
STIB-1019,PICARD,50.864062,4.344119
STIB-1024B,WTC,50.861176,4.355358
STIB-1026,HOMBORCH,50.779124,4.336456
STIB-1027,BRAVES,50.773318,4.33661
STIB-1033,WESTLAND SHOPPING,50.837629,4.287194
STIB-1034,NEERPEDE,50.829645,4.279835
STIB-1035,GARE DE JETTE,50.880181,4.330411
STIB-1036,GARE DE JETTE,50.880162,4.330173
STIB-1037,HOP. MILITAIRE,50.907736,4.389004
STIB-1038,HOP. MILITAIRE,50.907873,4.389203
STIB-1040,MERCATOR,50.908333,4.39609
STIB-1041,MERCATOR,50.908496,4.395102
STIB-1042,ICHEC,50.838265,4.408091
STIB-1043,HOF TER MUSSCHEN,50.854208,4.447844
STIB-1044,SIMONE VEIL,50.905522,4.403494
STIB-1046G,LEGRAND,50.816346,4.371817
STIB-1047F,LEGRAND,50.815959,4.371874
STIB-1048F,LEGRAND,50.815564,4.37176
STIB-1049F,LEGRAND,50.815519,4.371065
STIB-1050,SIMONE VEIL,50.905996,4.402031
STIB-1053,MARLY,50.898577,4.402396
STIB-1054,NELSON MANDELA,50.899278,4.399029
STIB-1056,PICARD,50.864456,4.343166
STIB-1057,PETER BENOIT,50.895472,4.388029
STIB-1059,LEGRAND,50.816689,4.371696
STIB-1060,HEEMBEEK,50.887074,4.377409
STIB-1061,HEEMBEEK,50.887234,4.377897
STIB-1062,HEEMBEEK,50.88749,4.378208
STIB-1063,CESAR DE PAEPE,50.842901,4.350818
STIB-1064,GOFFIN,50.866879,4.310144
STIB-1065,LE ROUX,50.879155,4.321791
STIB-1066,EUGENE TOUSSAINT,50.881187,4.321846
STIB-1068,PRES COMMUNS,50.889929,4.381395
STIB-1069,PRES COMMUNS,50.889837,4.380858
STIB-1071,FOREST NATIONAL,50.810403,4.324666
STIB-1074,ZAMAN-FOREST NAT.,50.813199,4.324849
STIB-1075,FOREST CENTRE,50.812741,4.321528
STIB-1078,ZAMAN-FOREST NAT.,50.813061,4.32473
STIB-1085,BERVOETS,50.817464,4.320483
STIB-1089,PAVILLONS MEUDON,50.893925,4.397845
STIB-1090,PAVILLONS MEUDON,50.893896,4.397901
STIB-1091,DE FRE,50.806017,4.372015
STIB-1092,GOBERT,50.808444,4.370454
STIB-1093,LONGCHAMP,50.81124,4.368879
STIB-1094,VALIDA,50.86631,4.303465
STIB-1094F,VALIDA,50.866292,4.303465
STIB-1095,PLACE DE L'EGLISE,50.861233,4.292961
STIB-1096,BENES,50.864112,4.312275
STIB-1097,BASTOGNE,50.861273,4.315886
STIB-1098,SIPPELBERG,50.861828,4.322201
STIB-1099,PARC MONNET,50.869995,4.288174
STIB-1101,LONGCHAMP,50.810916,4.368738
STIB-1102A,SEPT ETOILES,50.864585,4.285551
STIB-1103,ANCIENNE BARRIERE,50.885545,4.316271
STIB-1105,COMHAIRE,50.859962,4.296378
STIB-1107,GOBERT,50.808237,4.370383
STIB-1108,GOFFIN,50.866778,4.308838
STIB-1110,VAN HAELEN,50.780214,4.325869
STIB-1111,COLLEGE S.-COEUR,50.866675,4.314886
STIB-1112,SIMONIS,50.86296,4.330756
STIB-1113,ICHEC,50.838804,4.408276
STIB-1114B,VANHUFFEL,50.860432,4.331643
STIB-1115,AUTRIQUE,50.85877,4.330078
STIB-1116,HUNDERENVELD,50.866817,4.281688
STIB-1117,DELACROIX,50.845805,4.32306
STIB-1118B,GENOT,50.862575,4.301247
STIB-1119,WINTEROY,50.864477,4.30662
STIB-1120,WINTEROY,50.8645,4.306428
STIB-1121,BLOKKEN,50.92159,4.428635
STIB-1123,DE FRE,50.806241,4.371717
STIB-1124,TRONE,50.841632,4.364819
STIB-1125,HOP. SAINT-PIERRE,50.8347,4.346152
STIB-1126,JEU DE BALLE,50.837424,4.349035
STIB-1127,CHAPELLE,50.841246,4.351814
STIB-1128,PETIT SABLON,50.839898,4.355875
STIB-1129,ROYALE,50.841426,4.358345
STIB-1131B,LUXEMBOURG,50.839745,4.373679
STIB-1132,TREVES,50.841004,4.374318
STIB-1133,PARC LEOPOLD,50.840341,4.378663
STIB-1134,NERVIENS,50.839287,4.386635
STIB-1135,GAULOIS,50.838062,4.392801
STIB-1136,MERODE,50.839216,4.398528
STIB-1138,ZEPHYR,50.846783,4.420899
STIB-1139,GEORGES HENRI,50.842148,4.406718
STIB-1140,DEGROOFF,50.843639,4.411958
STIB-1141,MEUDON,50.84508,4.417254
STIB-1142,HUNDERENVELD,50.86724,4.281502
STIB-1145,GARE DE L'OUEST,50.848351,4.322094
STIB-1150,ZEPHYR,50.847132,4.421532
STIB-1152,MEUDON,50.844896,4.41677
STIB-1153,DEGROOFF,50.843612,4.411504
STIB-1154,GEORGES HENRI,50.841746,4.406374
STIB-1156,MERODE,50.839607,4.398226
STIB-1157,GAULOIS,50.838215,4.39256
STIB-1158,NERVIENS,50.839573,4.386044
STIB-1159,GAULOIS,50.838242,4.392106
STIB-1160,TREVES,50.841975,4.374715
STIB-1162C,LUXEMBOURG,50.839401,4.373376
STIB-1165,ROYALE,50.841376,4.35808
STIB-1167,CHAPELLE,50.84089,4.350595
STIB-1168,JEU DE BALLE,50.837426,4.346872
STIB-1169,PORTE DE HAL,50.834403,4.343214
STIB-1172,LIBERTE,50.862688,4.326239
STIB-1173,MUSEE DU TRAM,50.832134,4.432012
STIB-1178,DELACROIX,50.845922,4.323329
STIB-1179,AUTRIQUE,50.85886,4.330205
STIB-1180,VANHUFFEL,50.860483,4.331816
STIB-1182,SIPPELBERG,50.861968,4.321936
STIB-1183,SIMONIS,50.863355,4.330671
STIB-1184,LIBERTE,50.862752,4.325697
STIB-1185,QUATRE BRAS,50.818837,4.478658
STIB-1188,QUATRE BRAS,50.8205,4.478041
STIB-1190,COMHAIRE,50.860912,4.296286
STIB-1193A,SEPT ETOILES,50.865548,4.284473
STIB-1194,HUNDERENVELD,50.866952,4.28129
STIB-1195,HUNDERENVELD,50.866943,4.281332
STIB-1196,PARC MONNET,50.869753,4.288799
STIB-1197,BASTOGNE,50.861354,4.316156
STIB-1198,BENES,50.864311,4.312234
STIB-1199,GOFFIN,50.866834,4.308323
STIB-1199F,GOFFIN,50.866834,4.308323
STIB-1202,OSSEGHEM,50.856387,4.326529
STIB-1203,WESTLAND SHOPPING,50.838025,4.284196
STIB-1204,FRUITS,50.837374,4.290288
STIB-1207,PAULSEN,50.843463,4.300495
STIB-1209,PLACE DE L'EGLISE,50.861772,4.291597
STIB-1216,MADOUX,50.825832,4.445549
STIB-1217,TROIS COULEURS,50.821402,4.447137
STIB-1220,ALBERT,50.821161,4.341972
STIB-1221,ALBERT,50.820955,4.342058
STIB-1222,TROIS COULEURS,50.821691,4.447817
STIB-1223,AUDERGHEM-FORET,50.818508,4.451174
STIB-1226,SIMONE VEIL,50.905632,4.402999
STIB-1227,LEMONNIER,50.841047,4.340769
STIB-1229,UNION,50.819628,4.325398
STIB-1230,UNION,50.821157,4.325978
STIB-1231,CHATAIGNES,50.817222,4.325196
STIB-1232,CHATAIGNES,50.817292,4.325487
STIB-1233,LUXEMBOURG,50.838936,4.372733
STIB-1236,VALIDA,50.866256,4.303181
STIB-1236F,VALIDA,50.866256,4.303153
STIB-1237,ELEPHANT,50.851948,4.33237
STIB-1239,ZAMAN-FOREST NAT.,50.814081,4.324773
STIB-1240,ZAMAN-FOREST NAT.,50.814372,4.325088
STIB-1242,ELEPHANT,50.851954,4.3335
STIB-1243,NEPTUNIUM,50.865284,4.37756
STIB-1244,GROENINGHE,50.854077,4.328448
STIB-1246,NEPTUNIUM,50.865419,4.377687
STIB-1250,HOUZEAU,50.80305,4.358807
STIB-1251,HOUZEAU,50.803621,4.358749
STIB-1252,STOCKEL,50.840858,4.462754
STIB-1254,MUSEE DU TRAM,50.831334,4.432926
STIB-1257,PAULSEN,50.843753,4.300032
STIB-1260,FRUITS,50.837572,4.289977
STIB-1261,WESTLAND SHOPPING,50.838385,4.284139
STIB-1262B,LUXEMBOURG,50.840268,4.373914
STIB-1271B,FROISSART,50.840523,4.382669
STIB-1273,AMBIORIX,50.846234,4.38347
STIB-1278,LA CHASSE,50.829955,4.390926
STIB-1280B,FLAGEY,50.828384,4.373165
STIB-1281,SUZAN DANIEL,50.863306,4.349156
STIB-1282,SUZAN DANIEL,50.863018,4.348724
STIB-1283B,BIPLAN,50.884092,4.410163
STIB-1286,SIMONIS,50.863005,4.330789
STIB-1288,SIMONIS,50.863301,4.330614
STIB-1289,STADE,50.893809,4.33186
STIB-1290,STADE,50.893462,4.332132
STIB-1293,GARE DU NORD,50.859127,4.358129
STIB-1298,MADOUX,50.82664,4.445821
STIB-1302,STOCKEL,50.839796,4.463803
STIB-1303,RIETHUISEN,50.867019,4.321136
STIB-1304,COLLEGE S.-COEUR,50.866675,4.314772
STIB-1306,SCHWEITZER,50.864418,4.29709
STIB-1306F,SCHWEITZER,50.864418,4.29709
STIB-1307,SCHWEITZER,50.864373,4.296735
STIB-1307F,SCHWEITZER,50.864364,4.296721
STIB-1308G,SCHWEITZER,50.864581,4.297151
STIB-1310,SCHWEITZER,50.864894,4.296868
STIB-1313,BOSSAERT-BASILIQ.,50.865077,4.320101
STIB-1314,BESME,50.863632,4.324662
STIB-1317,SCHUMAN,50.844329,4.384186
STIB-1318,SCHUMAN,50.844356,4.383817
STIB-1320,ARIANE,50.85644,4.431044
STIB-1321,ARIANE,50.85661,4.432322
STIB-1328,ARBRE BALLON,50.892851,4.312731
STIB-1334,ARBRE BALLON,50.892622,4.314011
STIB-1339,KRAAINEM,50.849022,4.459021
STIB-1343,DE WANSIJN,50.791908,4.357665
STIB-1344,DE WANSIJN,50.791807,4.356808
STIB-1347,DROSSART,50.792014,4.352949
STIB-1348,TOUR ET TAXIS,50.864947,4.350303
STIB-1355,ROODEBEEK,50.84747,4.436562
STIB-1356,TOUR ET TAXIS,50.865586,4.350999
STIB-1358,COTEAUX,50.85969,4.376229
STIB-1360,EXPOSITION,50.879538,4.316284
STIB-1361,ANCIENNE BARRIERE,50.885212,4.317055
STIB-1362,EXPOSITION,50.879712,4.315742
STIB-1368,ANCIENNE BARRIERE,50.885087,4.318659
STIB-1375,GERGEL,50.851218,4.487768
STIB-1376B,GRAND SABLON,50.841413,4.353383
STIB-1377,DEUTSCHE SCHULE,50.852427,4.491947
STIB-1379,ROODEBEEK,50.847956,4.436126
STIB-1380,LONG-CHENE,50.853332,4.496851
STIB-1381,LONG-CHENE,50.853365,4.496515
STIB-1382,ROODEBEEK,50.847902,4.435729
STIB-1383,ROODEBEEK,50.84803,4.436032
STIB-1384,ROODEBEEK,50.848138,4.436066
STIB-1385,ROODEBEEK,50.84779,4.436351
STIB-1387,DEUTSCHE SCHULE,50.852518,4.490754
STIB-1388,MIROIR,50.871865,4.325596
STIB-1390,MIROIR,50.872275,4.325783
STIB-1392,MIROIR,50.872382,4.323557
STIB-1402B,MICHEL-ANGE,50.845205,4.386602
STIB-1403,JAMBLINNE DE MEUX,50.847236,4.393729
STIB-1404,VICTOR HUGO,50.847707,4.397407
STIB-1406,VERGOTE,50.845754,4.403994
STIB-1408,MONTALD,50.843986,4.421288
STIB-1410,MELARD,50.842013,4.428398
STIB-1411,MAX WALLER,50.805602,4.313003
STIB-1412,VOOT,50.841014,4.434987
STIB-1414,FOREST CENTRE,50.81202,4.318767
STIB-1415,STADE FALLON,50.841169,4.443304
STIB-1416,FROISSART,50.840185,4.382637
STIB-1417B,BREYDEL,50.841185,4.384678
STIB-1419,GUEUX,50.847115,4.391358
STIB-1421,SLEGERS,50.841465,4.432368
STIB-1422,DEPORTES,50.839795,4.437871
STIB-1423,PARC MALOU,50.840299,4.440293
STIB-1424,GEORGES HENRI,50.842274,4.406462
STIB-1425,AMBIORIX,50.846244,4.384315
STIB-1427,MERCURE,50.797724,4.354912
STIB-1429,DROSSART,50.7925,4.351807
STIB-1430,DIEWEG,50.794963,4.349612
STIB-1434,LANCASTER,50.794501,4.355096
STIB-1441,CHAPELLE,50.841605,4.350494
STIB-1442,NEERSTALLE,50.801301,4.317317
STIB-1443,NEERSTALLE,50.800609,4.317602
STIB-1444,FOREST CENTRE,50.812173,4.315949
STIB-1446,RUE LONGUE,50.79701,4.309824
STIB-1447,VICTOR ALLARD,50.800989,4.329699
STIB-1448,VICTOR GAMBIER,50.798952,4.333472
STIB-1449,SLEGERS,50.841452,4.432127
STIB-1450,DEPORTES,50.839816,4.436724
STIB-1451,PARC MALOU,50.840567,4.439701
STIB-1452,CARREFOUR STALLE,50.795638,4.321455
STIB-1453,CALYPSO 2000,50.803007,4.409778
STIB-1454,VOOT,50.841361,4.434287
STIB-1455,CALYPSO 2000,50.803124,4.408998
STIB-1456,MELARD,50.842347,4.427376
STIB-1457,WAGON,50.797046,4.328719
STIB-1458,MONTALD,50.844086,4.421193
STIB-1459,GEORGES HENRI,50.842922,4.406278
STIB-1460,VERGOTE,50.845828,4.404551
STIB-1462,VICTOR HUGO,50.847998,4.398087
STIB-1463,GUEUX,50.846985,4.390915
STIB-1464,MICHEL-ANGE,50.845282,4.386558
STIB-1466,HOP. DES ENFANTS,50.88792,4.327875
STIB-1467,HOP. DES ENFANTS,50.888569,4.327578
STIB-1468,HELDENPLEIN,50.926799,4.424698
STIB-1469,HELDENPLEIN,50.926388,4.425036
STIB-1470,KASSEI,50.922914,4.414763
STIB-1472,FORESTERIE,50.786148,4.42484
STIB-1473,KASSEI,50.922715,4.415091
STIB-1476,FROISSART,50.8405,4.381885
STIB-1477B,CERIA,50.816266,4.290209
STIB-1478,CAMPUS CERIA,50.815856,4.29502
STIB-1479,COLOMBOPHILES,50.818644,4.298266
STIB-1480,WAXWEILER,50.823075,4.296755
STIB-1481,ENSOR,50.920708,4.405555
STIB-1482,RENE HENRY,50.836154,4.295301
STIB-1483,WESTLAND SHOPPING,50.837828,4.283771
STIB-1484,POMMIER,50.835155,4.280397
STIB-1485,ENSOR,50.921057,4.4093
STIB-1486B,BON AIR,50.835718,4.275337
STIB-1487,POMMIER,50.834966,4.280497
STIB-1489,RENE HENRY,50.836343,4.295116
STIB-1490,VAN BEETHOVEN,50.828854,4.293893
STIB-1491,JOZEF BAUS,50.839511,4.494793
STIB-1492,WAXWEILER,50.823022,4.297351
STIB-1493,WAUTERS,50.818515,4.294711
STIB-1494,JOZEF BAUS,50.839821,4.494327
STIB-1495,VAN BEETHOVEN,50.828962,4.293893
STIB-1497B,TOULOUSE,50.843138,4.375982
STIB-1498,HUIT HEURES,50.820497,4.299327
STIB-1500,MUSEE DU TRAM,50.832932,4.432063
STIB-1508,MADOU,50.849102,4.369937
STIB-1509,SAINT-JOSSE,50.849751,4.374333
STIB-1510,GUTENBERG,50.849039,4.377279
STIB-1512,VINCOTTE,50.85162,4.384813
STIB-1513,DAILLY,50.852473,4.388463
STIB-1514B,RADIUM,50.852399,4.392447
STIB-1518,LEVIE,50.847919,4.407745
STIB-1519,MAI,50.848322,4.413496
STIB-1520,HEYDENBERG,50.848617,4.417628
STIB-1521,SPEECKAERT,50.848436,4.420326
STIB-1522,VERHEYLEWEGHEN,50.848165,4.425145
STIB-1523,MARIE-CHRISTINE,50.8728,4.358026
STIB-1524,MARIE-CHRISTINE,50.873068,4.358226
STIB-1525,PEUPLIERS,50.852894,4.437955
STIB-1526,MARCEL THIRY,50.855664,4.440581
STIB-1527,JESPERS,50.857103,4.441439
STIB-1528,HOF TEN BERG,50.858827,4.43867
STIB-1529,HYMANS,50.846731,4.431215
STIB-1530,WTC,50.86036,4.355422
STIB-1531,MARCEL THIRY,50.85561,4.438959
STIB-1532,ENTREPOT,50.869787,4.352728
STIB-1533,GULLEDELLE,50.855492,4.428179
STIB-1534,CICERON,50.860617,4.420453
STIB-1535,PADUWA,50.859649,4.414209
STIB-1536,GARE DU NORD,50.85919,4.358469
STIB-1537,ENTREPOT,50.869859,4.352813
STIB-1538B,DE LOMBAERDE,50.859742,4.416887
STIB-1540,CHARMILLE,50.850757,4.434245
STIB-1541B,CAMPUS CERIA,50.816555,4.292593
STIB-1542,TUNNEL PAVILLON,50.869835,4.365292
STIB-1544,LEOPOLD II,50.836077,4.412949
STIB-1545,JULES CESAR,50.834547,4.420311
STIB-1546,CHIEN VERT,50.834697,4.426884
STIB-1548B,SCHUMAN,50.841983,4.383759
STIB-1549,TUNNEL PAVILLON,50.869744,4.365272
STIB-1550,CHARMILLE,50.851026,4.434771
STIB-1551,MARCEL THIRY,50.854788,4.440301
STIB-1552,JESPERS,50.857664,4.442065
STIB-1553,MARCEL THIRY,50.854908,4.438887
STIB-1554,PEUPLIERS,50.85249,4.437386
STIB-1556,VILVOORDE STATION,50.924098,4.432294
STIB-1557,VERHEYLEWEGHEN,50.848321,4.424602
STIB-1558,SPEECKAERT,50.848604,4.420268
STIB-1559,HEYDENBERG,50.848725,4.416464
STIB-1560,MAI,50.848573,4.414546
STIB-1561,LEVIE,50.848054,4.408895
STIB-1565B,RADIUM,50.852816,4.392029
STIB-1566,DAILLY,50.852527,4.388052
STIB-1567,VINCOTTE,50.85153,4.384174
STIB-1568,CLOVIS,50.849894,4.381107
STIB-1569B,GUTENBERG,50.849132,4.377147
STIB-1570,SAINT-JOSSE,50.849814,4.374063
STIB-1571,MADOU,50.849743,4.369584
STIB-1572,CERIA,50.816457,4.289624
STIB-1576,PRINC. ELISABETH,50.872992,4.376771
STIB-1577,PRINC. ELISABETH,50.873218,4.376999
STIB-1578,HYMANS,50.846876,4.43052
STIB-1581,JACQUES BREL,50.84128,4.315397
STIB-1582,SAINT-JOSSE,50.850263,4.374759
STIB-1583,GARE DE L'OUEST,50.848732,4.321084
STIB-1584,KLAKKEDELLE,50.846716,4.442702
STIB-1585,VANDERVELDE,50.847414,4.447702
STIB-1586,ALMA,50.847868,4.45584
STIB-1587,KRAAINEM,50.84839,4.459234
STIB-1589,JACQUES BREL,50.841253,4.315099
STIB-1597B,CHIREC,50.817082,4.400814
STIB-1598B,CHIREC,50.817056,4.399788
STIB-1599,DIELEGHEM,50.888054,4.319338
STIB-1601,REINE ASTRID,50.848082,4.467057
STIB-1602,VIOLETTES,50.840749,4.484562
STIB-1605,LOUIS MARCELIS,50.846945,4.483422
STIB-1606,DIELEGHEM,50.888147,4.319041
STIB-1615,GERGEL,50.850406,4.48694
STIB-1616,VOISINS,50.852094,4.481924
STIB-1617,PLAINE DES SPORTS,50.843553,4.487269
STIB-1618,SAINT-NICOLAS,50.814467,4.288169
STIB-1619,SAINT-NICOLAS,50.814629,4.288467
STIB-1620B,HERNALSTEEN,50.840141,4.489543
STIB-1625,EGLISE WEZEMBEEK,50.852723,4.482954
STIB-1628,GARE DE LINKEBEEK,50.774171,4.338487
STIB-1629,OPPEM,50.835757,4.495693
STIB-1630,DIRECTOIRE,50.78918,4.359647
STIB-1632,COLLEGE ST-PIERRE,50.806433,4.34079
STIB-1633,PEYO,50.81049,4.340145
STIB-1635,EGLISE WEZEMBEEK,50.853658,4.482068
STIB-1636,COGHEN,50.814107,4.339161
STIB-1638B,KRAAINEM,50.848754,4.458553
STIB-1639,ALMA,50.848054,4.455359
STIB-1640B,VANDERVELDE,50.84762,4.448299
STIB-1641,KLAKKEDELLE,50.846986,4.443732
STIB-1644G,LIEDTS,50.86364,4.366551
STIB-1648,COGHEN,50.814015,4.33906
STIB-1649,PEYO,50.809923,4.339828
STIB-1650,COLLEGE ST-PIERRE,50.805949,4.340894
STIB-1651,HEROS,50.803597,4.342061
STIB-1652,PLACE SAINT-JOB,50.793728,4.363929
STIB-1653,PLACE SAINT-JOB,50.793908,4.364326
STIB-1654,PORTE DE NAMUR,50.839217,4.363777
STIB-1656B,HERNALSTEEN,50.840053,4.488152
STIB-1657,PLAINE DES SPORTS,50.8432,4.487606
STIB-1659,GERGEL,50.850898,4.486474
STIB-1662,GARE DU MIDI,50.838508,4.336507
STIB-1664,GARE DU MIDI,50.838616,4.33644
STIB-1665,HERMES,50.828595,4.316431
STIB-1666,HERMES,50.828587,4.315907
STIB-1668,VIOLETTES,50.84038,4.484703
STIB-1669,LOUIS MARCELIS,50.847023,4.483433
STIB-1670,SUZAN DANIEL,50.863052,4.347176
STIB-1671,SUZAN DANIEL,50.86303,4.347661
STIB-1673,REINE ASTRID,50.848287,4.466527
STIB-1674F,BRUXELLOIS,50.873581,4.322738
STIB-1675F,BRUXELLOIS,50.873981,4.322561
STIB-1676F,SQ. DU CENTENAIRE,50.875999,4.318701
STIB-1677F,SQ. DU CENTENAIRE,50.876295,4.318299
STIB-1678F,EXPOSITION,50.879669,4.315958
STIB-1679F,EXPOSITION,50.880061,4.315951
STIB-1680F,ANCIENNE BARRIERE,50.885354,4.316858
STIB-1681F,ANCIENNE BARRIERE,50.885472,4.316281
STIB-1682F,UZ BRUSSEL,50.88634,4.311669
STIB-1683F,UZ BRUSSEL,50.886652,4.311336
STIB-1684F,UZ-PEDIATRIE,50.889498,4.309422
STIB-1685F,UZ-PEDIATRIE,50.890081,4.309188
STIB-1686F,ARBRE BALLON,50.892923,4.31296
STIB-1687F,ARBRE BALLON,50.892997,4.315058
STIB-1689F,DE HEYN,50.893478,4.319755
STIB-1690F,PALFIJN,50.89407,4.325231
STIB-1691F,PALFIJN,50.893998,4.325572
STIB-1692F,STADE,50.89384,4.331185
STIB-1693F,STADE,50.894154,4.331475
STIB-1695F,ROI BAUDOUIN,50.89631,4.329465
STIB-1695G,ROI BAUDOUIN,50.896084,4.329767
STIB-1696F,COTEAUX,50.859872,4.375848
STIB-1697,COTEAUX,50.859744,4.376436
STIB-1698F,COTEAUX,50.859573,4.376816
STIB-1706,IDALIE,50.83592,4.372487
STIB-1707,SAINT-GERY,50.847746,4.345838
STIB-1711,BONAVENTURE,50.885563,4.322378
STIB-1712,FETIS,50.833227,4.385801
STIB-1713,LA CHASSE,50.83088,4.38932
STIB-1714,BUEDTS,50.828191,4.393776
STIB-1715,ARSENAL,50.826393,4.396727
STIB-1716,STRATEGIE,50.824135,4.400458
STIB-1718B,EGLISE ST-JULIEN,50.820617,4.409552
STIB-1719,VANDROMME,50.819093,4.414807
STIB-1720B,VALDUC,50.817395,4.421282
STIB-1721,UZ-PEDIATRIE,50.88989,4.309199
STIB-1722,UZ BRUSSEL,50.886396,4.311083
STIB-1723B,SCHOONEJANS,50.811714,4.432757
STIB-1724,SACRE-COEUR,50.809887,4.436147
STIB-1725,TRANSVAAL,50.808245,4.435562
STIB-1726,LOUISE,50.835924,4.356089
STIB-1727,UZ-VUB,50.886007,4.308504
STIB-1728,MUSEUM,50.835745,4.37717
STIB-1729,SCIENCE,50.839842,4.369371
STIB-1731,AUDERGHEM-SHOP.,50.816646,4.425399
STIB-1732,UZ-VUB,50.885712,4.308952
STIB-1733,ETANGS,50.835493,4.380861
STIB-1734,TRONE,50.840638,4.364821
STIB-1736,DE WANSIJN,50.792251,4.359013
STIB-1737,DROSSART,50.79192,4.351576
STIB-1738,DROSSART,50.79192,4.351675
STIB-1739,DE WANSIJN,50.792486,4.359972
STIB-1743,UZ BRUSSEL,50.886729,4.311452
STIB-1744,UZ-PEDIATRIE,50.889696,4.309404
STIB-1746,BONAVENTURE,50.884648,4.322212
STIB-1747,SQ. DU CENTENAIRE,50.875668,4.318538
STIB-1751,AUDERGHEM-SHOP.,50.816872,4.424406
STIB-1752,SACRE-COEUR,50.810343,4.435688
STIB-1753,SCHOONEJANS,50.811842,4.432488
STIB-1754,HERRMANN-DEBROUX,50.812487,4.428388
STIB-1755,BONAVENTURE,50.885043,4.321743
STIB-1756B,VALDUC,50.817791,4.41971
STIB-1757,VANDROMME,50.819006,4.415298
STIB-1758B,EGLISE ST-JULIEN,50.821065,4.408234
STIB-1760,STRATEGIE,50.823982,4.400869
STIB-1762,BUEDTS,50.828506,4.39335
STIB-1764,FETIS,50.833029,4.386241
STIB-1766,FIRMIN LECHARLIER,50.871086,4.330171
STIB-1767,LEOPOLD I,50.872802,4.328702
STIB-1768,BONAVENTURE,50.884961,4.322729
STIB-1769B,MUSEUM,50.835839,4.374913
STIB-1775,LEOPOLD I,50.873069,4.328503
STIB-1776,SCIENCE,50.839925,4.369258
STIB-1777B,ETANGS,50.835875,4.379721
STIB-1779,ARSENAL,50.82588,4.397704
STIB-1780,TRONE,50.841846,4.364798
STIB-1781,GRAND-PLACE,50.845003,4.351728
STIB-1782,FIRMIN LECHARLIER,50.870978,4.330174
STIB-1788B,GUILL. DE GREEF,50.882563,4.335713
STIB-1792,MERCHTEM,50.858268,4.336469
STIB-1793,ETANGS NOIRS,50.857124,4.33165
STIB-1801,PORTE DE HAL,50.833143,4.342664
STIB-1802,NERVIENS,50.838755,4.385732
STIB-1803B,LEMAN,50.837065,4.38664
STIB-1804,LOUIS HAP,50.83435,4.388044
STIB-1805F,LA CHASSE,50.831049,4.390575
STIB-1806,ONZE NOVEMBRE,50.832789,4.395101
STIB-1807,ROI VAINQUEUR,50.83226,4.398901
STIB-1809,BOILEAU,50.831532,4.404636
STIB-1810,BARON DE CASTRO,50.828744,4.407946
STIB-1811,DREVE DE NIVELLES,50.826613,4.411843
STIB-1812,MOUETTES,50.824949,4.414481
STIB-1813,CHANT D'OISEAU,50.827185,4.41822
STIB-1814B,OCEAN ATLANTIQUE,50.830501,4.418486
STIB-1815,MOSTINCK,50.833278,4.423319
STIB-1816,CHIEN VERT,50.834522,4.427014
STIB-1818,KELLE,50.831355,4.438019
STIB-1819,MERTENS,50.831502,4.443557
STIB-1820,DE BROUCKERE,50.850478,4.3513
STIB-1821,RUE AU BOIS,50.831349,4.452485
STIB-1822,MANOIR D'ANJOU,50.828395,4.456118
STIB-1823,VANDER MEERSCHEN,50.825859,4.457146
STIB-1824,PORTE DE NAMUR,50.839652,4.364629
STIB-1825,SAINTE-ALIX,50.828376,4.463049
STIB-1826,PADDOCK,50.832598,4.463862
STIB-1828,GERSIS,50.841322,4.459728
STIB-1829,VAL DES SEIGNEURS,50.842242,4.456536
STIB-1830,KONKEL,50.842081,4.450887
STIB-1831,DON BOSCO,50.841399,4.448927
STIB-1832,DON BOSCO,50.841533,4.449168
STIB-1833B,STADE FALLON,50.841321,4.443688
STIB-1834,MAREYDE,50.832914,4.446811
STIB-1835,BOULEAUX,50.836926,4.467474
STIB-1836B,MAREYDE,50.833421,4.446906
STIB-1840,BOULEAUX,50.83698,4.467214
STIB-1841,MAREYDE,50.832842,4.446584
STIB-1846,VAL DES SEIGNEURS,50.841945,4.45693
STIB-1847,GERSIS,50.841108,4.459907
STIB-1850,PADDOCK,50.833162,4.463477
STIB-1851,SAINTE-ALIX,50.828542,4.462659
STIB-1852,VANDER MEERSCHEN,50.825841,4.456976
STIB-1853,MANOIR D'ANJOU,50.829269,4.455366
STIB-1854,RUE AU BOIS,50.831085,4.452259
STIB-1856,MERTENS,50.831564,4.443634
STIB-1857,KELLE,50.8314,4.437821
STIB-1859,CHIEN VERT,50.834884,4.429254
STIB-1860,JULES CESAR,50.833549,4.420338
STIB-1861,OCEAN ATLANTIQUE,50.830996,4.418354
STIB-1862,CHANT D'OISEAU,50.827961,4.418128
STIB-1863,MOUETTES,50.82502,4.41529
STIB-1864,DREVE DE NIVELLES,50.826031,4.412728
STIB-1865,BARON DE CASTRO,50.82878,4.408268
STIB-1866,BOILEAU,50.832162,4.404083
STIB-1868,ROI VAINQUEUR,50.832883,4.398917
STIB-1869,ONZE NOVEMBRE,50.832786,4.395933
STIB-1870,LA CHASSE,50.831161,4.389874
STIB-1871B,LOUIS HAP,50.834694,4.388065
STIB-1872B,LEMAN,50.837284,4.386689
STIB-1873,NERVIENS,50.839106,4.385817
STIB-1874,JULES CESAR,50.834987,4.420562
STIB-1875,LEOPOLD II,50.836284,4.415514
STIB-1880,VARIA,50.834405,4.37815
STIB-1881,BLYCKAERTS,50.833022,4.375424
STIB-1883,VARIA,50.834163,4.377866
STIB-1884,BLYCKAERTS,50.832713,4.374968
STIB-1893,BORDET STATION,50.877616,4.409348
STIB-1894,BOURSE,50.849296,4.34871
STIB-1895,BOURSE,50.849239,4.348391
STIB-1900,GARE DU NORD,50.86008,4.360273
STIB-1903,BIARRITZ,50.825678,4.369486
STIB-1904,ROGIER,50.855575,4.358297
STIB-1906,IDALIE,50.835179,4.372173
STIB-1909,BLYCKAERTS,50.83294,4.374842
STIB-1910,MALIBRAN,50.830855,4.373536
STIB-1912,VLEURGAT,50.823557,4.367669
STIB-1913,VAN EYCK,50.819647,4.366233
STIB-1914,PATTON,50.817394,4.366481
STIB-1915,BASCULE,50.815338,4.367106
STIB-1916,LONGCHAMP,50.812034,4.367336
STIB-1917,GOSSART,50.811096,4.362452
STIB-1918,MONTJOIE,50.809738,4.365162
STIB-1919,RENE GOBERT,50.806357,4.366364
STIB-1920,FLORIDE,50.803796,4.361786
STIB-1921,HOUZEAU,50.804353,4.356523
STIB-1926B,RITTWEGER,50.798185,4.336239
STIB-1926G,RITTWEGER,50.798185,4.336239
STIB-1929,ENGELAND,50.789477,4.333814
STIB-1931,BIGARREAUX,50.784248,4.332705
STIB-1932,GRIOTTES,50.781047,4.332395
STIB-1935,BRAVES,50.773299,4.336027
STIB-1936,GARE DE LINKEBEEK,50.774094,4.338942
STIB-1937,BOURDON,50.78698,4.330689
STIB-1938,HOMBORCH,50.77961,4.338295
STIB-1942,STATUAIRES,50.803921,4.349047
STIB-1943,STATUAIRES,50.803912,4.349486
STIB-1944,HOSPICES,50.776778,4.339069
STIB-1949,ENGELAND,50.788995,4.334455
STIB-1951,HEROS,50.803306,4.342621
STIB-1953,CABRIS,50.776272,4.342435
STIB-1954,GARE DE LINKEBEEK,50.774085,4.338772
STIB-1955,BRAVES,50.773632,4.335874
STIB-1958B,GRIOTTES,50.78091,4.332439
STIB-1959,BIGARREAUX,50.784023,4.332988
STIB-1961B,ENGELAND,50.78894,4.334006
STIB-1961G,ENGELAND,50.78894,4.334006
STIB-1962,UCCLE CALEVOET,50.791242,4.332898
STIB-1962F,UCCLE CALEVOET,50.791224,4.332898
STIB-1964,RITTWEGER,50.797648,4.336207
STIB-1964F,RITTWEGER,50.797648,4.336207
STIB-1965,BOURDON,50.78733,4.330532
STIB-1968,ZEECRABBE,50.804313,4.354864
STIB-1969,HOUZEAU,50.804084,4.358041
STIB-1970,FLORIDE,50.803733,4.361942
STIB-1971,RENE GOBERT,50.806745,4.366326
STIB-1972,MONTJOIE,50.810053,4.364538
STIB-1973,GOSSART,50.811068,4.362587
STIB-1975,BASCULE,50.816034,4.366957
STIB-1976,VAN EYCK,50.821452,4.366581
STIB-1977,VLEURGAT,50.823501,4.367848
STIB-1980,MALIBRAN,50.830576,4.373493
STIB-1981,BLYCKAERTS,50.833175,4.374767
STIB-1983,IDALIE,50.836394,4.370789
STIB-1984B,GLOBE,50.800674,4.337416
STIB-1984G,GLOBE,50.800544,4.33711
STIB-1985B,GLOBE,50.80056,4.3373
STIB-1985G,GLOBE,50.800687,4.337586
STIB-1986,BIARRITZ,50.825853,4.369757
STIB-1988B,ROGIER,50.85585,4.358545
STIB-1989,PETER BENOIT,50.895843,4.388548
STIB-2002,PLACE SAINT-JOB,50.793512,4.366737
STIB-2009,ROND-PT SOUVERAIN,50.818551,4.427289
STIB-2010,PLACE SAINT-JOB,50.793389,4.366686
STIB-2014,PARC SENY,50.808319,4.427192
STIB-2015,VIADUC E40,50.866116,4.453828
STIB-2016,DRIES,50.803869,4.3996
STIB-2017,SAINT-ANTOINE,50.862491,4.457417
STIB-2018,FUTAIE,50.801479,4.396951
STIB-2022,THIRY-WOLUWE,50.854805,4.445186
STIB-2025B,ANNECY,50.86019,4.4549
STIB-2026,TENREUKEN,50.804848,4.426382
STIB-2027,DUNETTE,50.852563,4.455372
STIB-2028,THIRY-WOLUWE,50.853935,4.44343
STIB-2029,THUMAS,50.864124,4.456697
STIB-2037,CLINIQUES-UCL,50.851204,4.451656
STIB-2038,AUDITOIRES-UCL,50.850663,4.454183
STIB-2039,MOUNIER,50.85031,4.457931
STIB-2041,MOUNIER,50.850255,4.458513
STIB-2042,AUDITOIRES-UCL,50.85069,4.454112
STIB-2043,CLINIQUES-UCL,50.851276,4.451528
STIB-2046,HERRMANN-DEBROUX,50.812357,4.429112
STIB-2050,HERRMANN-DEBROUX,50.812231,4.429126
STIB-2051,COTEAUX,50.859427,4.379125
STIB-2058,ROND-PT SOUVERAIN,50.818479,4.427715
STIB-2067,COTEAUX,50.859755,4.378841
STIB-2069,UCL SAINT-LUC,50.85284,4.452738
STIB-2070,DE BROUCKERE,50.853196,4.353646
STIB-2071B,ANNECY,50.85999,4.454882
STIB-2072,KARREVELD,50.858405,4.318501
STIB-2073,KARREVELD,50.857615,4.31955
STIB-2074,FUTAIE,50.801644,4.396923
STIB-2076,DRIES,50.804133,4.40026
STIB-2077,TENREUKEN,50.805087,4.426706
STIB-2078,SAINT-ANTOINE,50.863047,4.457565
STIB-2079,WATERMAEL GARE,50.809788,4.399271
STIB-2080,WATERMAEL GARE,50.809661,4.399387
STIB-2081,OSSEGHEM,50.856927,4.325319
STIB-2082,OSSEGHEM,50.857009,4.32534
STIB-2084,UCL SAINT-LUC,50.85284,4.452738
STIB-2085,DUNETTE,50.852563,4.455371
STIB-2086,PARC SENY,50.80913,4.427589
STIB-2087,THUMAS,50.864773,4.456784
STIB-2088,DESTOUVELLES,50.866428,4.35856
STIB-2089,DESTOUVELLES,50.866227,4.358283
STIB-2090,WILLEBROEK,50.864497,4.354843
STIB-2091,WILLEBROEK,50.864589,4.355012
STIB-2092,CROIX DE GUERRE,50.894611,4.390838
STIB-2093,CROIX DE GUERRE,50.894753,4.391357
STIB-2094,VERGER,50.891237,4.3838
STIB-2095,VERGER,50.891445,4.384563
STIB-2096,DOCKS BRUXSEL,50.879227,4.375066
STIB-2097,COLIGNON,50.867252,4.372886
STIB-2098,COLIGNON,50.866692,4.373226
STIB-2099,GAZELLE,50.782011,4.341228
STIB-2100,VOLTAIRE,50.867061,4.379705
STIB-2101,VOLTAIRE,50.867265,4.380029
STIB-2102,CROSSING,50.864943,4.380714
STIB-2103,VERREWINKEL,50.778337,4.354473
STIB-2104,GUI,50.782621,4.35701
STIB-2105,BREMER,50.855967,4.383582
STIB-2106,BREMER,50.85564,4.384072
STIB-2107,BIEN-FAIRE,50.806201,4.400576
STIB-2109B,VIVIER D'OIE,50.795803,4.372407
STIB-2112,PASTEUR,50.780305,4.349198
STIB-2115,BIEN-FAIRE,50.80625,4.40063
STIB-2116B,SAINTE-ALLIANCE,50.779228,4.364342
STIB-2117B,NAPOLEON,50.779259,4.376415
STIB-2118B,PRINCE D'ORANGE,50.780738,4.380476
STIB-2119,VAN BEVER,50.783459,4.379204
STIB-2120,RONCES,50.787661,4.375822
STIB-2122,GEORGES BRUGMANN,50.817163,4.354632
STIB-2123,CAVELL,50.811716,4.357429
STIB-2124,BRUNARD,50.808012,4.357118
STIB-2125,LANGEVELD,50.806502,4.357331
STIB-2131,LANGEVELD,50.806358,4.357586
STIB-2132,BRUNARD,50.807958,4.357175
STIB-2133,CAVELL,50.811185,4.357628
STIB-2134,GEORGES BRUGMANN,50.816833,4.354964
STIB-2136,FORT-JACO,50.789323,4.37502
STIB-2137,RACING,50.792451,4.374226
STIB-2138B,VIVIER D'OIE,50.794875,4.373693
STIB-2140,RACING,50.792721,4.374056
STIB-2142,FORT-JACO,50.789598,4.374857
STIB-2143B,RONCES,50.786822,4.376323
STIB-2144,VAN BEVER,50.784311,4.37835
STIB-2145,PRINCE D'ORANGE,50.781196,4.380889
STIB-2146,NAPOLEON,50.778634,4.373884
STIB-2147B,SAINTE-ALLIANCE,50.779147,4.36532
STIB-2148,FORT-JACO,50.788971,4.373792
STIB-2150,FORT-JACO,50.78962,4.372651
STIB-2153,DIRECTOIRE,50.789605,4.359525
STIB-2156,GUI,50.782373,4.356859
STIB-2157,VERREWINKEL,50.77804,4.354289
STIB-2158B,PAMPOEL,50.870326,4.305265
STIB-2159B,PAMPOEL,50.870839,4.304048
STIB-2160,NEREUS,50.872959,4.315007
STIB-2161,PASTEUR,50.780341,4.349113
STIB-2162,NEREUS,50.872878,4.314714
STIB-2163,BOULE ET BILL,50.889448,4.322644
STIB-2164,BOULE ET BILL,50.889412,4.322303
STIB-2165,JEANNE HERREMAN,50.794343,4.3343
STIB-2165F,JEANNE HERREMAN,50.794352,4.334285
STIB-2166,JEANNE HERREMAN,50.794092,4.334203
STIB-2166F,JEANNE HERREMAN,50.794092,4.334203
STIB-2167,GAZELLE,50.782155,4.341157
STIB-2168,HOMBORCH,50.779458,4.338791
STIB-2170,EMILE DELVA,50.876959,4.342083
STIB-2171,EMILE DELVA,50.876904,4.342176
STIB-2173,TERDELT,50.868579,4.389682
STIB-2174,TERDELT,50.868582,4.389962
STIB-2176,BASILIX,50.872416,4.297737
STIB-2177,LOUISE,50.83615,4.355323
STIB-2207,GLIBERT,50.864233,4.357417
STIB-2209,NICOLAY,50.858919,4.354478
STIB-2212,BOURSE,50.848383,4.3467
STIB-2213,BUANDERIE,50.846143,4.342782
STIB-2215,LIVERPOOL,50.843561,4.33398
STIB-2216,CLEMENCEAU,50.841816,4.329864
STIB-2217,ALBERT I,50.839134,4.322911
STIB-2217F,ALBERT I,50.839153,4.322924
STIB-2218,CUREGHEM,50.836803,4.31806
STIB-2218F,CUREGHEM,50.836813,4.318029
STIB-2220F,RESISTANCE,50.83564,4.311456
STIB-2221,DE BERLAIMONT,50.849859,4.360204
STIB-2225,ARISTIDE BRIAND,50.828805,4.303346
STIB-2226,VAN KALKEN,50.826586,4.304877
STIB-2237,MASUI,50.86941,4.363255
STIB-2238,STEPHENSON,50.869537,4.367204
STIB-2239,PAVILLON,50.869824,4.371196
STIB-2241G,MEISER,50.855501,4.395892
STIB-2242F,MEISER,50.855222,4.397014
STIB-2243F,MEISER,50.854907,4.398704
STIB-2246F,MEISER,50.854421,4.398959
STIB-2247,MEISER,50.853976,4.397888
STIB-2248,MEISER,50.855289,4.397253
STIB-2249,MEISER,50.855137,4.397045
STIB-2250,MEISER,50.853963,4.397794
STIB-2252,ARISTIDE BRIAND,50.828949,4.302693
STIB-2254,MEIR,50.832176,4.302034
STIB-2257G,RESISTANCE,50.835721,4.312172
STIB-2259,CUREGHEM,50.837022,4.318582
STIB-2259F,CUREGHEM,50.837038,4.318582
STIB-2260,ALBERT I,50.839213,4.323316
STIB-2260F,ALBERT I,50.839207,4.323336
STIB-2261,CLEMENCEAU,50.841816,4.330106
STIB-2262,LIVERPOOL,50.843741,4.335201
STIB-2264,BUANDERIE,50.846737,4.343922
STIB-2269,NICOLAY,50.859189,4.354777
STIB-2271,GLIBERT,50.864161,4.357517
STIB-2283,MONTGOMERY,50.837038,4.408147
STIB-2285G,MONTGOMERY,50.838041,4.405536
STIB-2286G,MONTGOMERY,50.837987,4.405848
STIB-2287,MONTGOMERY,50.838007,4.406021
STIB-2289,MONTGOMERY,50.837841,4.407085
STIB-2290B,HANKAR,50.821815,4.405568
STIB-2291B,HANKAR,50.821725,4.405707
STIB-2292B,GARE DE HAREN-SUD,50.889968,4.414876
STIB-2294B,GARE DE HAREN-SUD,50.8896,4.416634
STIB-2296,ARENBERG,50.848166,4.356478
STIB-2301,ARENBERG,50.849265,4.356881
STIB-2305,ENTREPOT,50.868341,4.353197
STIB-2306,DECROLY,50.805452,4.32734
STIB-2319,HOPITAL BRACOPS,50.833458,4.295192
STIB-2323,MEIR,50.833035,4.30281
STIB-2327,RIVE GAUCHE,50.890381,4.391322
STIB-2331F,BARRIERE,50.827158,4.344041
STIB-2333,BARRIERE,50.826834,4.344013
STIB-2333F,BARRIERE,50.826834,4.344013
STIB-2334B,BARRIERE,50.826762,4.343545
STIB-2334F,BARRIERE,50.826762,4.343545
STIB-2336G,BARRIERE,50.826574,4.344709
STIB-2337F,DOCKS BRUXSEL,50.879578,4.371271
STIB-2338F,DOCKS BRUXSEL,50.879398,4.370675
STIB-2345,LOUIS BERTRAND,50.866066,4.384904
STIB-2346,LATINIS,50.867468,4.386353
STIB-2351,BUYL,50.818914,4.378791
STIB-2351F,BUYL,50.818916,4.378789
STIB-2355,HEROS,50.803139,4.342194
STIB-2365,VAL MARIA,50.899893,4.385399
STIB-2367,DOCKS BRUXSEL,50.879536,4.375408
STIB-2370,ENTREPOT,50.86861,4.353112
STIB-2373,DE LINDE,50.835428,4.298979
STIB-2375,HOPITAL BRACOPS,50.833718,4.295433
STIB-2378,BUDA,50.908636,4.406829
STIB-2379,BUDA,50.908554,4.406614
STIB-2380F,DAUTZENBERG,50.827635,4.366478
STIB-2382,CERIA,50.816506,4.290393
STIB-2384,CERIA,50.816082,4.290149
STIB-2385,CERIA,50.816774,4.291229
STIB-2392,BOURSE,50.846598,4.348295
STIB-2395,LA CHASSE,50.830979,4.390583
STIB-2396B,BERVOETS,50.815059,4.318893
STIB-2397,BUYL,50.817442,4.380672
STIB-2397F,BUYL,50.817442,4.380672
STIB-2401F,PTE D'ANDERLECHT,50.845369,4.338892
STIB-2402,PARVIS ST-GILLES,50.830628,4.34421
STIB-2403,PTE D'ANDERLECHT,50.844911,4.338679
STIB-2404,COMBAZ,50.825323,4.338635
STIB-2404F,COMBAZ,50.825332,4.33862
STIB-2405,PTE D'ANDERLECHT,50.844731,4.338892
STIB-2407,LAINE,50.821348,4.334025
STIB-2408,MONT KEMMEL,50.820882,4.338183
STIB-2410,ALTITUDE CENT,50.816239,4.335899
STIB-2411B,DUDEN,50.814714,4.332679
STIB-2412,DOMAINE,50.810676,4.329038
STIB-2414,DECROLY,50.804317,4.327933
STIB-2415,AULNE,50.802945,4.330492
STIB-2422,DELHOVE,50.86909,4.316014
STIB-2423,DELHOVE,50.869063,4.315725
STIB-2424,KRAAINEM-SHOPPING,50.84804,4.474114
STIB-2425,KRAAINEM-SHOPPING,50.848221,4.472851
STIB-2429,PLEIADES,50.853841,4.417309
STIB-2430,ANDROMEDE,50.853057,4.424597
STIB-2431,ANDROMEDE,50.853057,4.424597
STIB-2452,VICTOR ALLARD,50.800727,4.327285
STIB-2453,DECROLY,50.804626,4.328093
STIB-2455,DOMAINE,50.810911,4.329166
STIB-2456,DUDEN,50.814768,4.332896
STIB-2457,ALTITUDE CENT,50.816311,4.33616
STIB-2459,MONT KEMMEL,50.821104,4.337835
STIB-2460,LAINE,50.821061,4.334649
STIB-2462,ROCHEFORT,50.824403,4.336018
STIB-2462F,ROCHEFORT,50.824418,4.336007
STIB-2463,COMBAZ,50.825317,4.339086
STIB-2463F,COMBAZ,50.825314,4.339075
STIB-2465,PARVIS ST-GILLES,50.830153,4.344556
STIB-2467,PORTE DE HAL,50.832571,4.344302
STIB-2470,PORTE DE HAL,50.832111,4.344862
STIB-2498B,DEMINEURS,50.879164,4.332661
STIB-2504,WOESTE,50.874395,4.332338
STIB-2506B,MIROIR,50.871344,4.323532
STIB-2507,SIMPSON,50.869431,4.321781
STIB-2508,RIETHUISEN,50.866902,4.320028
STIB-2509,BOSSAERT-BASILIQ.,50.864744,4.318411
STIB-2511,CIM. DE MOLENBEEK,50.858628,4.311245
STIB-2512,LEROY,50.856955,4.308918
STIB-2513,CANDRIES,50.854999,4.306058
STIB-2514,MACHTENS,50.851754,4.30046
STIB-2515B,VERBEYST,50.877071,4.331647
STIB-2518,DE LINDE,50.835331,4.299476
STIB-2519,RIETHUISEN,50.867271,4.32007
STIB-2522,PRINCE DE LIEGE,50.846278,4.298367
STIB-2523,ILE SAINTE-HELENE,50.823274,4.316581
STIB-2524,CHARROI,50.822309,4.322634
STIB-2528,VETERINAIRES,50.83262,4.328908
STIB-2531,GARE DU MIDI,50.836331,4.337828
STIB-2532,JAKOB SMITS,50.841453,4.303494
STIB-2533B,BEAUTE,50.839302,4.30772
STIB-2534B,BROEREN,50.838325,4.312751
STIB-2539,SUEDE,50.834096,4.335818
STIB-2539F,SUEDE,50.834069,4.33579
STIB-2541,PLACE V. HORTA,50.834784,4.332879
STIB-2544,AVENUE DU ROI,50.831389,4.332229
STIB-2544F,AVENUE DU ROI,50.831353,4.332286
STIB-2545,KAREL BOGAERD,50.881239,4.348305
STIB-2546,WIELS,50.824159,4.325394
STIB-2547,BOCKSTAEL,50.877635,4.347781
STIB-2548,IMPRIMERIE,50.828963,4.329152
STIB-2548F,IMPRIMERIE,50.828952,4.329208
STIB-2550,VAN KALKEN,50.827044,4.305009
STIB-2551,CHARROI,50.822171,4.321734
STIB-2553,ORBAN,50.827133,4.327205
STIB-2554,BOCKSTAEL,50.877652,4.347042
STIB-2555,CHARROI,50.821668,4.32197
STIB-2556,ILE SAINTE-HELENE,50.823497,4.316113
STIB-2558,BOCKSTAEL,50.877697,4.347326
STIB-2560,BEAUTE,50.839281,4.306877
STIB-2561,JAKOB SMITS,50.841912,4.303236
STIB-2562B,MAISON D'ERASME,50.837254,4.307401
STIB-2564B,PRINCE DE LIEGE,50.847402,4.299103
STIB-2565,MACHTENS,50.851655,4.300702
STIB-2566B,CANDRIES,50.855561,4.307349
STIB-2567,LEROY,50.856901,4.3094
STIB-2568,CIM. DE MOLENBEEK,50.858682,4.311784
STIB-2569,BASTOGNE,50.862379,4.316595
STIB-2570,BOSSAERT-BASILIQ.,50.864784,4.318871
STIB-2571,RIETHUISEN,50.868071,4.321206
STIB-2572,SIMPSON,50.869995,4.322582
STIB-2573B,MIROIR,50.871156,4.323703
STIB-2575,WOESTE,50.87471,4.33329
STIB-2578,ANNEESSENS,50.845686,4.346176
STIB-2581,ANNEESSENS,50.845686,4.346176
STIB-2584B,DEMINEURS,50.879024,4.332441
STIB-2586,VERBEYST,50.876435,4.330532
STIB-2587,WTC,50.860782,4.355779
STIB-2595,DE BROUCKERE,50.850504,4.35389
STIB-2596,DE BROUCKERE,50.849654,4.352651
STIB-2598,ERASME,50.815052,4.266326
STIB-2599,EDDY MERCKX,50.816904,4.279004
STIB-2600,TREFLES,50.819177,4.283268
STIB-2601,MARIE CURIE,50.8215,4.284226
STIB-2602,MARTIN LUTH. KING,50.825555,4.288086
STIB-2603,ZAMAN-FOREST NAT.,50.813623,4.324822
STIB-2604,MONACO,50.812953,4.32267
STIB-2604F,MONACO,50.812957,4.322694
STIB-2605,FRANS HALS,50.826205,4.289699
STIB-2606,DEBUSSY,50.827658,4.295798
STIB-2607,VEEWEYDE,50.828449,4.299611
STIB-2609,RUE LONGUE,50.796599,4.309433
STIB-2610,DROGENBOS-SHOP.,50.793372,4.309999
STIB-2611,GILSON,50.794791,4.306641
STIB-2612,FOREST NATIONAL,50.809058,4.325217
STIB-2614,MEYLEMEERSCH,50.815603,4.272953
STIB-2617,VEEWEYDE,50.828528,4.298556
STIB-2618,DEBUSSY,50.827578,4.294576
STIB-2619,FRANS HALS,50.826707,4.290885
STIB-2620,MARTIN LUTH. KING,50.825307,4.287215
STIB-2621,MARIE CURIE,50.821824,4.283943
STIB-2622,TREFLES,50.819542,4.283026
STIB-2623,EDDY MERCKX,50.817028,4.278602
STIB-2624,MEYLEMEERSCH,50.816051,4.27466
STIB-2625,ERASME,50.815259,4.265609
STIB-2631,FORESTOISE,50.807323,4.326279
STIB-2632,FORESTOISE,50.807417,4.326368
STIB-2633,GATTI DE GAMOND,50.807026,4.32846
STIB-2634,GATTI DE GAMOND,50.807655,4.328317
STIB-2635F,SAINT-LAMBERT,50.890848,4.344463
STIB-2636F,SAINT-LAMBERT,50.890867,4.346055
STIB-2637F,SAINT-LAMBERT,50.889932,4.345032
STIB-2647,WESTLAND SHOPPING,50.83767,4.285347
STIB-2648,WESTLAND SHOPPING,50.837586,4.287789
STIB-2659,GILSON,50.794746,4.306627
STIB-2660,DROGENBOS-SHOP.,50.792767,4.308875
STIB-2661,RUE LONGUE,50.796824,4.309901
STIB-2662B,UCCLE SPORT,50.798675,4.313548
STIB-2664,UCCLE SPORT,50.798433,4.312655
STIB-2667,MONACO,50.812891,4.322873
STIB-2667F,MONACO,50.812894,4.322907
STIB-2668,ZAMAN-FOREST NAT.,50.814001,4.324963
STIB-2670,AVENUE DU ROI,50.831686,4.332853
STIB-2670F,AVENUE DU ROI,50.831677,4.332853
STIB-2671,SUEDE,50.834213,4.336102
STIB-2671F,SUEDE,50.834276,4.336173
STIB-2672,IMPRIMERIE,50.830004,4.330725
STIB-2672F,IMPRIMERIE,50.830049,4.33064
STIB-2680,CLOVIS,50.850687,4.381504
STIB-2681,TRONE,50.840086,4.365335
STIB-2682,TRONE,50.839956,4.366364
STIB-2695,GENEVE,50.863832,4.403241
STIB-2701,UCCLE CALEVOET,50.790914,4.332986
STIB-2702,GROELSTVELD,50.789861,4.33866
STIB-2704,HELLEVELT,50.792062,4.344201
STIB-2705,CHENAIE,50.79236,4.348895
STIB-2707,FROISSART,50.840392,4.380564
STIB-2708G,DIEWEG,50.796753,4.346159
STIB-2709F,WOLVENDAEL,50.79831,4.343077
STIB-2710G,MARLOW,50.801591,4.340593
STIB-2714,HOP.STE-ELISABETH,50.804785,4.368837
STIB-2715,VERT CHASSEUR,50.802349,4.372922
STIB-2717,GENDARMES,50.799184,4.379419
STIB-2718,RESERVOIR,50.798383,4.385149
STIB-2719,MAELBEEK,50.84433,4.378052
STIB-2720F,LIEDTS,50.864422,4.365912
STIB-2721,GENDARMES,50.79943,4.379302
STIB-2725,BERGOJE,50.81597,4.429216
STIB-2726F,LIEDTS,50.86497,4.365599
STIB-2727,DEUX CHAUSSEES,50.816381,4.434921
STIB-2728,SAINTE-ANNE,50.818216,4.436542
STIB-2729,DE VILLEGAS,50.869539,4.307992
STIB-2730,DE VILLEGAS,50.869728,4.307907
STIB-2733,ANNEESSENS,50.844886,4.346148
STIB-2734,UNION,50.819978,4.324912
STIB-2735,UNION,50.820379,4.326376
STIB-2736,PIERRE DECOSTER,50.821872,4.329885
STIB-2737,ROUPPE,50.843186,4.345098
STIB-2738,PIERRE DECOSTER,50.821996,4.329977
STIB-2739,MADELEINE,50.843934,4.355164
STIB-2741,HEYSEL,50.897592,4.334295
STIB-2742,PALAIS 12,50.89932,4.341281
STIB-2743,PALAIS 12,50.899089,4.340554
STIB-2744,MANNEKEN-PIS,50.845749,4.3493
STIB-2745,ESPLANADE,50.901578,4.347422
STIB-2746,ESPLANADE,50.901558,4.348599
STIB-2747,BERGDAL,50.901262,4.355632
STIB-2748B,PRINCE DE LIEGE,50.846007,4.299509
STIB-2749,BERGDAL,50.901366,4.355204
STIB-2750,PRINCE DE LIEGE,50.845829,4.29929
STIB-2751,FORUM,50.898963,4.357207
STIB-2752,DEUX CHAUSSEES,50.81639,4.434396
STIB-2753,BERGOJE,50.816078,4.428918
STIB-2754,OBUS,50.847316,4.304414
STIB-2755B,FORUM,50.898675,4.357229
STIB-2756,CRAETBOS,50.89641,4.382687
STIB-2757C,HIPPOD. BOITSFORT,50.797285,4.394014
STIB-2758,CRAETBOS,50.896643,4.383384
STIB-2759,RESERVOIR,50.798554,4.384695
STIB-2760B,GENDARMES,50.799283,4.379135
STIB-2762,VERT CHASSEUR,50.801453,4.37359
STIB-2763,HOP.STE-ELISABETH,50.804883,4.368986
STIB-2764G,MARLOW,50.800814,4.34091
STIB-2765,WOLVENDAEL,50.797959,4.343375
STIB-2766,VAL MARIA,50.900012,4.385067
STIB-2767,ROCHEFORT,50.824656,4.334986
STIB-2768,OBUS,50.847423,4.303803
STIB-2769,CHENAIE,50.792764,4.347278
STIB-2770,HELLEVELT,50.791613,4.342868
STIB-2771,GROELSTVELD,50.789913,4.338799
STIB-2772,ROCHEFORT,50.824506,4.334729
STIB-2773,SERBIE,50.828334,4.334172
STIB-2774,SERBIE,50.828579,4.333825
STIB-2775,AVENUE DU ROI,50.831684,4.333425
STIB-2776,SCHEUT,50.847192,4.308958
STIB-2777,AVENUE DU ROI,50.831139,4.333253
STIB-2778,GARE DU MIDI,50.836172,4.338154
STIB-2779,SCHEUT,50.847579,4.308958
STIB-2780,GARE DU MIDI,50.836542,4.339451
STIB-2781,JACQUES BREL,50.842467,4.317256
STIB-2782,JACQUES BREL,50.842725,4.317836
STIB-2783,VETERANS COLON.,50.843485,4.313586
STIB-2784,VETERANS COLON.,50.843544,4.313384
STIB-2786F,GALLAIT,50.865384,4.367758
STIB-2788,GARE CENTRALE,50.845464,4.357538
STIB-2801,CROCQ,50.884911,4.329588
STIB-2803,LORGE,50.882851,4.33087
STIB-2807,PRINCE LEOPOLD,50.88258,4.341402
STIB-2808,JACOBS FONTAINE,50.878667,4.342494
STIB-2809,KAREL BOGAERD,50.881167,4.348134
STIB-2810,ARTISTES,50.881483,4.354458
STIB-2811,SCHOLA EUROPEA,50.885467,4.353311
STIB-2813B,DE WAND,50.895678,4.357282
STIB-2814,PAGODES,50.895835,4.3628
STIB-2815B,LONG BONNIER,50.895768,4.365589
STIB-2816,VERSAILLES,50.896235,4.372264
STIB-2817,BEYSEGHEM,50.896604,4.37704
STIB-2819,KRUIPWEG,50.894518,4.380869
STIB-2822,VAL MARIA,50.899542,4.385206
STIB-2823B,FERME NOS PILIFS,50.90383,4.386737
STIB-2824,SERRES ROYALES,50.889193,4.357137
STIB-2827,FERME NOS PILIFS,50.90302,4.386491
STIB-2835,YSER,50.857103,4.353201
STIB-2840,MADELEINE,50.843233,4.354355
STIB-2842,TIRCHER,50.892546,4.323333
STIB-2845,GARE DE BERCHEM,50.872317,4.28982
STIB-2846,MARIE DEPAGE,50.813945,4.356293
STIB-2847,MARIE DEPAGE,50.814475,4.356109
STIB-2848F,MARGUERITE DURAS,50.855491,4.346631
STIB-2849,AUDREY HEPBURN,50.889678,4.316768
STIB-2850,AUDREY HEPBURN,50.889877,4.315769
STIB-2851F,MARGUERITE DURAS,50.855619,4.346114
STIB-2852,KRUIPWEG,50.8948,4.380687
STIB-2853,BEYSEGHEM,50.896595,4.376599
STIB-2854,VERSAILLES,50.896271,4.371994
STIB-2855,LONG BONNIER,50.895813,4.363934
STIB-2856B,PAGODES,50.897377,4.358959
STIB-2857C,DE WAND,50.895129,4.357751
STIB-2860,ARTISTES,50.881564,4.354244
STIB-2861,SCHOLA EUROPEA,50.885348,4.353234
STIB-2863,JACOBS FONTAINE,50.878802,4.342708
STIB-2864,GARE DE BERCHEM,50.872448,4.290775
STIB-2865F,JULES DE TROOZ,50.87297,4.360029
STIB-2866,GARE DE BERCHEM,50.872161,4.289982
STIB-2867,HOPITAL BRUGMANN,50.885793,4.332671
STIB-2871,LORGE,50.882386,4.331153
STIB-2873,CROCQ,50.884726,4.330214
STIB-2874,HOPITAL BRUGMANN,50.885793,4.332671
STIB-2875,SERRES ROYALES,50.88868,4.356059
STIB-2876F,GALLAIT,50.866633,4.368738
STIB-2878F,MARIE-CHRISTINE,50.873726,4.359447
STIB-2879F,MARIE-CHRISTINE,50.874022,4.359319
STIB-2895,HAREN,50.892834,4.421413
STIB-2898,VERBOEKHOVEN,50.871074,4.376438
STIB-2899,WITLOOF,50.901122,4.422301
STIB-2900,FONSON,50.879033,4.403878
STIB-2900F,FONSON,50.879051,4.403892
STIB-2901,VAN CUTSEM,50.880143,4.407481
STIB-2902,VAN CUTSEM,50.880012,4.407132
STIB-2903,FONSON,50.878826,4.403693
STIB-2903F,FONSON,50.878817,4.403664
STIB-2905,TWYENINCK,50.896412,4.421346
STIB-2908B,BIPLAN,50.885733,4.41031
STIB-2909,SAINT-VINCENT,50.880816,4.403821
STIB-2910,PAIX,50.877097,4.401905
STIB-2912,NOTRE-DAME,50.871438,4.399979
STIB-2915,JOSAPHAT,50.861481,4.392464
STIB-2918,DAILLY,50.853309,4.388208
STIB-2919,BRABANCONNE,50.851647,4.387125
STIB-2920,AMBIORIX,50.847682,4.383747
STIB-2924,OUD-KAPELLEKE,50.874152,4.403007
STIB-2926,BICHON,50.864482,4.394293
STIB-2927,PARC LEOPOLD,50.841059,4.378272
STIB-2928,FERNAND COCQ,50.833057,4.366481
STIB-2929,VANNE,50.829776,4.364338
STIB-2931,TRINITE,50.825002,4.357554
STIB-2931F,TRINITE,50.825002,4.357554
STIB-2932,MA CAMPAGNE,50.822575,4.354304
STIB-2934A,ALBERT,50.821665,4.341617
STIB-2935,JUPITER,50.81954,4.336742
STIB-2936,TOURNOI,50.816169,4.333783
STIB-2937B,MYSTERE,50.813742,4.330585
STIB-2948,TRONE,50.840674,4.364886
STIB-2950,PRISON,50.822511,4.346584
STIB-2951,JUPITER,50.819611,4.336954
STIB-2953,FOREST NATIONAL,50.810469,4.326216
STIB-2954B,MYSTERE,50.813771,4.330839
STIB-2955,TOURNOI,50.81636,4.333877
STIB-2957A,ALBERT,50.821413,4.341859
STIB-2959,MA CAMPAGNE,50.823006,4.353084
STIB-2960,TRINITE,50.824903,4.358596
STIB-2960F,TRINITE,50.824912,4.358604
STIB-2962,VANNE,50.829891,4.36401
STIB-2963,FERNAND COCQ,50.833219,4.366552
STIB-2964B,QUART.ST-BONIFACE,50.835413,4.363769
STIB-2965,PRISON,50.822673,4.347875
STIB-2967B,PORTE DE NAMUR,50.838171,4.36198
STIB-2971,BAILLI,50.827127,4.363428
STIB-2971F,BAILLI,50.827127,4.363442
STIB-2972,BAILLI,50.826857,4.362606
STIB-2972F,BAILLI,50.826857,4.362606
STIB-2974,DAILLY,50.853714,4.388478
STIB-2977,JOSAPHAT,50.862073,4.39253
STIB-2980,NOTRE-DAME,50.870872,4.400107
STIB-2982B,PAIX,50.876696,4.402225
STIB-2986B,TWYENINCK,50.896196,4.421147
STIB-2987,CORTENBACH,50.891847,4.418029
STIB-2988,CORTENBACH,50.892117,4.417902
STIB-2990,BICHON,50.864311,4.394179
STIB-2991,WITLOOF,50.90119,4.422883
STIB-2992,SAINT-VINCENT,50.88088,4.403855
STIB-2995,OUD-KAPELLEKE,50.874395,4.403505
STIB-2996,CONSCIENCE,50.869407,4.399921
STIB-2997,CONSCIENCE,50.867672,4.398627
STIB-3005,TROIS PERTUIS,50.892136,4.395871
STIB-3007,BIEBUYCK,50.88779,4.384372
STIB-3008,AVANT-PORT,50.885567,4.379059
STIB-3009,BORNE,50.85523,4.335619
STIB-3014,RIVE GAUCHE,50.890435,4.390484
STIB-3017,BOURGET,50.87815,4.430334
STIB-3018,BOURGET,50.8785,4.431073
STIB-3042,MACHELEN,50.912776,4.432925
STIB-3046,CLEMENCE EVERARD,50.817588,4.26531
STIB-3047,CLEMENCEAU,50.842425,4.33117
STIB-3059,BIEBUYCK,50.887865,4.384613
STIB-3061,TROIS PERTUIS,50.892025,4.395829
STIB-3062,ROSA PARKS,50.847297,4.361212
STIB-3063,MARLY,50.89846,4.40149
STIB-3072,ROSA PARKS,50.847396,4.361439
STIB-3074,CLEMENCE EVERARD,50.818299,4.266915
STIB-3075,YSER,50.857349,4.353526
STIB-3077,TERVUREN STATION,50.831093,4.518121
STIB-3078,CERIA,50.816248,4.290578
STIB-3080,MARIE-LOUISE,50.845024,4.377555
STIB-3081,MARIE-LOUISE,50.845721,4.378078
STIB-3082,ANDREE DE JONGH,50.87101,4.348892
STIB-3083,ANDREE DE JONGH,50.870911,4.349332
STIB-3084,AMELIE GOMAND,50.876455,4.338461
STIB-3085,AMELIE GOMAND,50.876365,4.338162
STIB-3086,MACHELENSTRAAT,50.919289,4.425681
STIB-3087,MACHELENSTRAAT,50.918524,4.424595
STIB-3098,ANATOLE FRANCE,50.876776,4.385756
STIB-3099,HUART-HAMOIR,50.876467,4.383458
STIB-3100,GUTENBERG,50.849049,4.377769
STIB-3101,SAINT-VINCENT,50.880625,4.401861
STIB-3102,PICARDIE,50.879537,4.396015
STIB-3103,CARLI,50.87936,4.393349
STIB-3104,CHAUMONTEL,50.878452,4.389995
STIB-3105,ZENOBE GRAMME,50.879766,4.383871
STIB-3106,SCHAERBEEK GARE,50.877429,4.379182
STIB-3107,SCHAERBEEK GARE,50.877636,4.379054
STIB-3109,EENENS,50.867837,4.377148
STIB-3111,HERMAN,50.863073,4.377446
STIB-3112,COTEAUX,50.859172,4.377161
STIB-3113,GEEFS,50.857194,4.375683
STIB-3114,BOSSUET,50.853828,4.373548
STIB-3117,PARC LEOPOLD,50.839547,4.380607
STIB-3118,BRAEMT,50.851243,4.376463
STIB-3120,NATATION,50.833173,4.378264
STIB-3121B,WERY,50.829389,4.376161
STIB-3122,FLAGEY,50.82804,4.371704
STIB-3123,LEVURE,50.828658,4.376665
STIB-3125,HOP. ETT.-IXELLES,50.825056,4.380146
STIB-3126B,VANDENHOVEN,50.882329,4.407346
STIB-3131,LEVURE,50.827746,4.376628
STIB-3150,PARC,50.84756,4.363669
STIB-3155,WERY,50.829386,4.376211
STIB-3156,NATATION,50.833087,4.378271
STIB-3158B,JOURDAN,50.83792,4.381785
STIB-3159,PARC LEOPOLD,50.8397,4.380593
STIB-3160,ETANGS,50.836107,4.380853
STIB-3162,HOUWAERT,50.853203,4.373496
STIB-3163,GEEFS,50.856933,4.375584
STIB-3164,COTEAUX,50.859855,4.377757
STIB-3165,HERMAN,50.863361,4.37736
STIB-3167,EENENS,50.868215,4.377077
STIB-3168,VERBOEKHOVEN,50.870876,4.376126
STIB-3171,ZENOBE GRAMME,50.87982,4.384156
STIB-3172,CHAUMONTEL,50.878246,4.389711
STIB-3173,CARLI,50.879288,4.393676
STIB-3174,PICARDIE,50.879565,4.397072
STIB-3175B,SAINT-VINCENT,50.880598,4.402159
STIB-3176,VANDENHOVEN,50.882205,4.407163
STIB-3177,SCHAERBEEK GARE,50.877375,4.380191
STIB-3180,HUART-HAMOIR,50.875478,4.382875
STIB-3181,ANATOLE FRANCE,50.876567,4.385379
STIB-3183,PATRIE,50.857129,4.390241
STIB-3184,PATRIE,50.856985,4.390113
STIB-3185,CHAZAL,50.860536,4.392046
STIB-3186,CHAZAL,50.859673,4.39152
STIB-3188,GLOBE,50.799885,4.336446
STIB-3189,XAVIER DE BUE,50.802727,4.336556
STIB-3190,BENS,50.806818,4.336758
STIB-3191,XAVIER DE BUE,50.803193,4.336665
STIB-3192,BENS,50.806798,4.336843
STIB-3193,MAX WALLER,50.805705,4.312942
STIB-3194,SAINT-DENIS,50.809427,4.313018
STIB-3196,SAINT-DENIS,50.809701,4.313231
STIB-3199,AERODROME,50.888347,4.42516
STIB-3200,DIABLOTINS,50.865434,4.421794
STIB-3201,MAES,50.886466,4.429606
STIB-3203,MIDDELWEG,50.883549,4.419967
STIB-3204,SABCA,50.881959,4.417138
STIB-3207,JULES BORDET,50.870623,4.418589
STIB-3210B,ARTEMIS,50.862308,4.416194
STIB-3211,GARE DU MIDI,50.836739,4.33708
STIB-3214,BORDET STATION,50.878191,4.410322
STIB-3216,PLASKY,50.851141,4.395961
STIB-3217,GUEUX,50.84732,4.391116
STIB-3218,MARGUERITE,50.847096,4.387396
STIB-3219,WATERLOO WILSON,50.847808,4.381205
STIB-3221,DANSAERT,50.851241,4.344952
STIB-3222,PORTE DE FLANDRE,50.85302,4.341841
STIB-3223B,PORTE DE NINOVE,50.850536,4.338749
STIB-3225,QUATRE-VENTS,50.849177,4.32557
STIB-3225F,QUATRE-VENTS,50.849177,4.32557
STIB-3226B,DUCHESSE BRABANT,50.849529,4.329631
STIB-3226F,DUCHESSE BRABANT,50.849532,4.329607
STIB-3228,TRIANGLE,50.850022,4.334696
STIB-3228F,TRIANGLE,50.849975,4.334359
STIB-3229,EUGENE TOUSSAINT,50.880576,4.321762
STIB-3230,GARE DE L'OUEST,50.848852,4.320969
STIB-3230F,GARE DE L'OUEST,50.848843,4.320969
STIB-3231,JOSEPH BAECK,50.852158,4.316237
STIB-3232,DUBOIS,50.851463,4.311353
STIB-3233,TAMARIS,50.851039,4.307562
STIB-3234,MACHTENS,50.851314,4.300802
STIB-3235,CANDRIES,50.855659,4.306405
STIB-3236,THYM,50.856905,4.303529
STIB-3237,PARC,50.847651,4.36355
STIB-3238,CONDOR,50.852395,4.307222
STIB-3239,CONDOR,50.852694,4.307324
STIB-3240,OPTIMISME,50.862106,4.409167
STIB-3243,FOREST (BERVOETS),50.817226,4.320107
STIB-3244,ALBERT II,50.857532,4.356298
STIB-3245,WTC,50.861313,4.356188
STIB-3252,TAMARIS,50.850913,4.307675
STIB-3253,GARE DE L'OUEST,50.848843,4.321694
STIB-3253F,GARE DE L'OUEST,50.848843,4.321708
STIB-3257,QUATRE-VENTS,50.849177,4.32601
STIB-3257F,QUATRE-VENTS,50.849186,4.32601
STIB-3259C,PORTE DE NINOVE,50.85047,4.338788
STIB-3260,PORTE DE FLANDRE,50.852788,4.342186
STIB-3261,DANSAERT,50.851034,4.345094
STIB-3263F,DUCHESSE BRABANT,50.849449,4.32937
STIB-3269,SQ. DU CENTENAIRE,50.874768,4.317718
STIB-3272,PADUWA,50.859714,4.414957
STIB-3273,ARTEMIS,50.86157,4.415903
STIB-3274,CIM. DE BRUXELLES,50.864218,4.418716
STIB-3276,JULES BORDET,50.870754,4.418774
STIB-3279,SABCA,50.881753,4.416944
STIB-3280,MIDDELWEG,50.884148,4.421197
STIB-3281,DUBOIS,50.851356,4.31168
STIB-3282,JOSEPH BAECK,50.852036,4.316437
STIB-3284,PEAGE,50.862153,4.4261
STIB-3285,DIABLOTINS,50.865371,4.422078
STIB-3286B,VILLON,50.863401,4.424931
STIB-3288,PEAGE,50.862418,4.426164
STIB-3293,PANNENHUIS,50.872812,4.341965
STIB-3298,PATRIE,50.856815,4.390652
STIB-3299,BIENFAITEURS,50.858323,4.38461
STIB-3304,MATISSE,50.87449,4.40861
STIB-3305,LEKAERTS,50.871628,4.405932
STIB-3306,HOEDEMAEKERS,50.871958,4.40383
STIB-3307,NOTRE-DAME,50.87124,4.400462
STIB-3308F,BIENFAITEURS,50.858308,4.384134
STIB-3312,PANNENHUIS,50.872596,4.342231
STIB-3313,QUETELET,50.852798,4.368894
STIB-3317,FUSEE,50.877382,4.419548
STIB-3320B,BOURSE,50.849372,4.347381
STIB-3321,FUSEE,50.877435,4.421296
STIB-3325,MERIDIEN,50.856412,4.369051
STIB-3332,MADOU,50.849887,4.369025
STIB-3334F,EUROCONTROL,50.879658,4.434499
STIB-3335F,EUROCONTROL,50.879486,4.433926
STIB-3337F,BOURGET,50.878401,4.431144
STIB-3338F,BOURGET,50.878258,4.430263
STIB-3354,PRESSE,50.848691,4.36796
STIB-3355,MADOU,50.850084,4.369193
STIB-3358,PRESSE,50.847976,4.367781
STIB-3360F,BIENFAITEURS,50.857679,4.384461
STIB-3361,HOEDEMAEKERS,50.87177,4.403872
STIB-3362,LEKAERTS,50.87255,4.407565
STIB-3366,PLASKY,50.850546,4.397406
STIB-3367,PLASKY,50.850698,4.397163
STIB-3368,SAINT-GUIDON,50.834693,4.305881
STIB-3369,SAINT-GUIDON,50.83476,4.306103
STIB-3370F,SAINT-GUIDON,50.834684,4.305637
STIB-3371F,SAINT-GUIDON,50.834771,4.306349
STIB-3372,FLAGEY,50.827114,4.372103
STIB-3376,RESISTANCE,50.835636,4.311713
STIB-3377,RESISTANCE,50.835725,4.311911
STIB-3378,DOUVRES,50.836138,4.31448
STIB-3379,DOUVRES,50.836048,4.314279
STIB-3380,ROBIANO,50.860251,4.371221
STIB-3381,PLASKY,50.850952,4.397026
STIB-3399,SCHUMAN,50.842675,4.383504
STIB-3401,CIM. DE BRUXELLES,50.864254,4.418196
STIB-3402,GUILLAUME,50.861276,4.412642
STIB-3403,DUNANT,50.865035,4.408995
STIB-3404,LOISIRS,50.86793,4.406426
STIB-3405,RODTS,50.790023,4.318206
STIB-3408,LATINIS,50.867072,4.387035
STIB-3409,LOUIS BERTRAND,50.866159,4.386086
STIB-3410,CROSSING,50.865203,4.38219
STIB-3411,KURTH,50.868904,4.396128
STIB-3412,CROSSING,50.864559,4.381105
STIB-3413,POUCHKINE,50.871257,4.34512
STIB-3414,AZALEES,50.862497,4.380542
STIB-3415,VAN HAELEN,50.780327,4.325692
STIB-3417,EVERE SHOPPING,50.867166,4.405886
STIB-3419,CONSCIENCE,50.868643,4.399693
STIB-3420,OUD-KAPELLEKE,50.874341,4.403888
STIB-3424,PERMEKE,50.870897,4.407182
STIB-3425,PERMEKE,50.8706,4.406414
STIB-3447,GINETTE JAVAUX,50.818694,4.408515
STIB-3448B,GARE D'EVERE,50.867563,4.40134
STIB-3449,KURTH,50.868823,4.395744
STIB-3450,EVERE SHOPPING,50.86677,4.404753
STIB-3451,AZALEES,50.862596,4.38094
STIB-3456,HENRIETTE LAUWERS,50.850306,4.483009
STIB-3457,HENRIETTE LAUWERS,50.850009,4.483008
STIB-3458,LOISIRS,50.86793,4.40627
STIB-3459,DUNANT,50.863443,4.410272
STIB-3460,GUILLAUME,50.861101,4.412554
STIB-3461,PADUWA,50.859327,4.415634
STIB-3462,CICERON,50.860355,4.421579
STIB-3463,GULLEDELLE,50.855565,4.42854
STIB-3465,DE BROUCKERE,50.85242,4.351157
STIB-3466,EVERE SHOPPING,50.866394,4.403939
STIB-3468,PAUL LEDUC,50.860652,4.4037
STIB-3469,DE BROUCKERE,50.851799,4.350802
STIB-3470,CONSCIENCE,50.868086,4.398201
STIB-3480,BUYL,50.819024,4.380329
STIB-3481,BUYL,50.81742,4.378614
STIB-3482,CIM. DE JETTE,50.879772,4.334737
STIB-3483,GUILL. DE GREEF,50.882966,4.336167
STIB-3484,CIM. DE JETTE,50.87974,4.334586
STIB-3486,BASTOGNE,50.861416,4.314906
STIB-3502,BOZAR,50.844123,4.359055
STIB-3503,ROYALE,50.842487,4.35897
STIB-3505,PORTE DE NAMUR,50.838945,4.361604
STIB-3506,QUART.ST-BONIFACE,50.835086,4.363978
STIB-3508F,FLAGEY,50.827324,4.371906
STIB-3510B,GEO BERNIER,50.820259,4.377041
STIB-3513,ULB,50.813926,4.384942
STIB-3514,CIM. D'IXELLES,50.815966,4.390704
STIB-3515,FRAITEUR,50.817711,4.396025
STIB-3517,ETANGS D'IXELLES,50.82414,4.373435
STIB-3518B,PORTE DE NAMUR,50.837543,4.362009
STIB-3519,FLAGEY,50.828071,4.3712
STIB-3520,DELTA,50.816744,4.405058
STIB-3521,BEAULIEU,50.815977,4.407516
STIB-3522,ADEPS,50.809849,4.443453
STIB-3524,JARDIN MASSART,50.813398,4.433279
STIB-3525,JEANNE,50.815284,4.383736
STIB-3526,JARDIN MASSART,50.813158,4.433902
STIB-3529,ROUGE-CLOITRE,50.811446,4.43969
STIB-3530,ROUGE-CLOITRE,50.812363,4.438627
STIB-3535,BEERSELLAAN,50.780573,4.324655
STIB-3546,DELTA,50.818353,4.405847
STIB-3549,VIGNETTE,50.813655,4.419876
STIB-3550,ROODENBERG,50.816111,4.416345
STIB-3551,CLESSE,50.817864,4.411684
STIB-3552,ROODENBERG,50.816381,4.415721
STIB-3553,CLESSE,50.817227,4.413423
STIB-3556,DELTA,50.818237,4.404285
STIB-3557,FRAITEUR,50.81789,4.396128
STIB-3558,CIM. D'IXELLES,50.816011,4.390576
STIB-3559,ULB,50.813899,4.384459
STIB-3562B,GEO BERNIER,50.820853,4.376617
STIB-3567,ROYALE,50.842748,4.358813
STIB-3570,ETANGS D'IXELLES,50.82369,4.373961
STIB-3572,FLAGEY,50.827754,4.371676
STIB-3572F,FLAGEY,50.827754,4.37169
STIB-3573,FLAGEY,50.828203,4.371163
STIB-3581,BEMPT,50.80282,4.315237
STIB-3587,ROGIER,50.85482,4.359592
STIB-3588,GARE DU NORD,50.858158,4.359492
STIB-3600,HOME HEYDEKEN,50.875035,4.313561
STIB-3601,HOME HEYDEKEN,50.875097,4.313015
STIB-3604,BEMPT,50.80288,4.315322
STIB-3605,PETERBOS,50.839247,4.296546
STIB-3606,FERNANDE VOLRAL,50.882663,4.321959
STIB-3607,FERNANDE VOLRAL,50.882814,4.322101
STIB-3608,FRANS HALS,50.827061,4.288346
STIB-3609F,PARC VIVES,50.826152,4.286105
STIB-3610F,MARIUS RENARD,50.824935,4.281424
STIB-3611F,MARIUS RENARD,50.824926,4.282034
STIB-3612F,PARC VIVES,50.825882,4.285623
STIB-3613F,FRANS HALS,50.827232,4.288942
STIB-3619B,VIER FONTEINEN,50.914989,4.421061
STIB-3620B,LONDRES,50.837984,4.368667
STIB-3623B,LONDRES,50.838038,4.368766
STIB-3624B,LOUISE,50.834945,4.355876
STIB-3625B,MA CAMPAGNE,50.823887,4.353452
STIB-3629,POELAERT,50.838003,4.353594
STIB-3630,GRAND SABLON,50.842189,4.354148
STIB-3633C,DANSAERT,50.851142,4.34437
STIB-3636,PETERBOS,50.83809,4.295876
STIB-3637,MEHDI BOUDA,50.842438,4.2962
STIB-3638,MEHDI BOUDA,50.843418,4.295787
STIB-3639,MEHDI BOUDA,50.844272,4.296382
STIB-3661,CIM. DE BRUXELLES,50.863368,4.418752
STIB-3681,DIGUE DU CANAL,50.823973,4.310747
STIB-3682,DIGUE DU CANAL,50.823802,4.310464
STIB-3702,ARBRE UNIQUE,50.863667,4.413198
STIB-3704,PAUL LEDUC,50.860542,4.404673
STIB-3705,FRANS COURTENS,50.859167,4.40115
STIB-3707,JAMBLINNE DE MEUX,50.848238,4.395036
STIB-3712,VANHELLEMONT,50.829471,4.285828
STIB-3713,SCHERDEMAEL,50.830981,4.289291
STIB-3717,SIBELIUS,50.833404,4.282615
STIB-3718,NEERPEDE,50.829351,4.281717
STIB-3751,NEERPEDE,50.829211,4.281613
STIB-3752,SIBELIUS,50.833205,4.282502
STIB-3755,SCHERDEMAEL,50.831225,4.290057
STIB-3756,VANHELLEMONT,50.829451,4.286071
STIB-3761,LEOPOLD III,50.85762,4.398496
STIB-3762,FRANS COURTENS,50.859086,4.401334
STIB-3763,PAUL LEDUC,50.860595,4.405199
STIB-3765,ARBRE UNIQUE,50.863775,4.41398
STIB-3766,OPTIMISME,50.861978,4.409319
STIB-3800,ELOY,50.835641,4.331204
STIB-3802,VETERINAIRES,50.833098,4.32799
STIB-3804,DEUX GARES,50.832053,4.32423
STIB-3805,PETITE ILE,50.830458,4.319426
STIB-3808,DIGUE DU CANAL,50.823468,4.308548
STIB-3810,BOLLINCKX,50.813705,4.306968
STIB-3812,LABEUR,50.820529,4.308197
STIB-3814,MOZART,50.810288,4.30516
STIB-3815,MOZART,50.810729,4.305499
STIB-3850,HUMANITE,50.810765,4.303466
STIB-3851,BOLLINCKX,50.813408,4.307128
STIB-3852,DEUX GARES,50.832052,4.324833
STIB-3853,INTERNATIONAL,50.816699,4.307634
STIB-3856,DIGUE DU CANAL,50.824377,4.309924
STIB-3858,PETITE ILE,50.830575,4.320065
STIB-3859,LABEUR,50.819864,4.308609
STIB-3860,INTERNATIONAL,50.816204,4.307848
STIB-3898,PADUWA,50.858891,4.413634
STIB-3899,MOONENS,50.848419,4.42883
STIB-3900,SAINTE-FAMILLE,50.850346,4.427968
STIB-3902,CAPRICORNE,50.855157,4.420893
STIB-3903,PLEIADES,50.854016,4.418262
STIB-3904,CARENE,50.854499,4.414556
STIB-3905,COLONEL BOURG,50.852523,4.409583
STIB-3906,FEVRIER,50.850669,4.41134
STIB-3908,HEYDENBERG,50.849013,4.416848
STIB-3909,SAINTE-FAMILLE,50.850165,4.427982
STIB-3910,MOONENS,50.848417,4.428607
STIB-3911,DIVIN SAUVEUR,50.850357,4.408401
STIB-3912,LEMAN,50.836831,4.387349
STIB-3919,VERHEYLEWEGHEN,50.848114,4.424722
STIB-3920,ANDROMEDE,50.854699,4.425119
STIB-3921,JOURDAN,50.837471,4.38028
STIB-3922,JOURDAN,50.83625,4.379636
STIB-3952,FEVRIER,50.850804,4.410228
STIB-3953,LEMAN,50.836751,4.386451
STIB-3954,HEYDENBERG,50.849058,4.417147
STIB-3956,COLONEL BOURG,50.85244,4.409463
STIB-3957,CARENE,50.854704,4.415206
STIB-3958,PLEIADES,50.853929,4.418145
STIB-3959,CAPRICORNE,50.85518,4.421039
STIB-3961,MOMMAERTS,50.85688,4.412695
STIB-3962,ANDROMEDE,50.854456,4.425251
STIB-4002B,BERCHEM-SHOPPING,50.869581,4.291958
STIB-4002G,BERCHEM-SHOPPING,50.869625,4.291895
STIB-4003G,ALCYONS,50.86679,4.294558
STIB-4005F,GENOT,50.861855,4.301616
STIB-4006G,VAN ZANDE,50.860179,4.306878
STIB-4007G,CIM. DE MOLENBEEK,50.858672,4.313261
STIB-4014,BEEKKANT,50.854243,4.323354
STIB-4022,KARREVELD,50.856689,4.317397
STIB-4053G,KARREVELD,50.85819,4.316563
STIB-4054G,CIM. DE MOLENBEEK,50.859329,4.309795
STIB-4055G,VAN ZANDE,50.861042,4.304376
STIB-4058F,ALCYONS,50.86767,4.293704
STIB-4059,BERCHEM-SHOPPING,50.870405,4.291299
STIB-4059F,BERCHEM-SHOPPING,50.870599,4.291199
STIB-4062,BOIS DES ILES,50.873513,4.295042
STIB-4066,GENOT,50.862808,4.299667
STIB-4066F,GENOT,50.862809,4.299667
STIB-4071,ARBRE BALLON,50.893066,4.313506
STIB-4072B,DE HEYN,50.893633,4.320188
STIB-4074B,ETANGS NOIRS,50.857531,4.334084
STIB-4076,HEROS,50.803083,4.341826
STIB-4101,BASILIX,50.872707,4.298342
STIB-4103,HET VEROOST,50.878173,4.304293
STIB-4104,NEUBERGER,50.876354,4.306682
STIB-4105,NEREUS,50.872429,4.313118
STIB-4106,SORENSEN,50.87068,4.311557
STIB-4107,BEECKMANS,50.869204,4.310398
STIB-4109,CHOPIN,50.875628,4.300155
STIB-4110,COLLEGE S.-COEUR,50.868263,4.316066
STIB-4111,ETANGS NOIRS,50.857069,4.332197
STIB-4112,LOWET,50.874039,4.310287
STIB-4115,GANSHOREN-SPORT,50.877186,4.301063
STIB-4116,PARC ELISABETH,50.865071,4.32834
STIB-4118F,BOCKSTAEL,50.877554,4.347198
STIB-4119F,BOCKSTAEL,50.877545,4.347795
STIB-4125,BOCKSTAEL,50.875855,4.348193
STIB-4127,BOCKSTAEL,50.87572,4.34835
STIB-4131B,GARE DE BOCKSTAEL,50.879855,4.347609
STIB-4132B,GARE DE BOCKSTAEL,50.879738,4.347908
STIB-4152,PARC ELISABETH,50.865502,4.327476
STIB-4153,COLLEGE S.-COEUR,50.86806,4.315424
STIB-4156,BEECKMANS,50.869363,4.310688
STIB-4157,SORENSEN,50.871043,4.312039
STIB-4158,NEREUS,50.872601,4.31309
STIB-4159,NEUBERGER,50.876054,4.307227
STIB-4160,HET VEROOST,50.878261,4.304038
STIB-4162,BASILIX,50.872806,4.29793
STIB-4163,LOWET,50.874249,4.310166
STIB-4165,BOIS DES ILES,50.873883,4.294419
STIB-4168,GANSHOREN-SPORT,50.877078,4.300879
STIB-4169,CHOPIN,50.874641,4.299862
STIB-4205B,PALFIJN,50.893983,4.325214
STIB-4206B,TIRCHER,50.892377,4.324067
STIB-4207,PATTIJN,50.891014,4.325347
STIB-4213,RIBAUCOURT,50.859879,4.341212
STIB-4214,MERCHTEM,50.858413,4.336782
STIB-4223,DE HEYN,50.893536,4.319441
STIB-4223F,DE HEYN,50.893405,4.319125
STIB-4228,AMETHYSTE,50.895888,4.327036
STIB-4229,STADE,50.893802,4.332107
STIB-4230,HOUBA-BRUGMANN,50.889903,4.33696
STIB-4232,SOBIESKI,50.884412,4.343898
STIB-4251,CROCQ,50.885316,4.32963
STIB-4253,RIBAUCOURT,50.859888,4.341493
STIB-4258,POUCHKINE,50.871076,4.344064
STIB-4259,PATTIJN,50.891131,4.325105
STIB-4261,PALFIJN,50.893859,4.326119
STIB-4262F,GARE DE BERCHEM,50.87252,4.28984
STIB-4263F,GARE DE BERCHEM,50.872676,4.290261
STIB-4264B,HEYSEL,50.896824,4.336515
STIB-4265,HEYSEL,50.896429,4.335858
STIB-4266,NEKKERSDAL,50.874191,4.346915
STIB-4267,NEKKERSDAL,50.873832,4.346305
STIB-4268,AMETHYSTE,50.89602,4.32708
STIB-4274,SOBIESKI,50.884735,4.343898
STIB-4276,HOUBA-BRUGMANN,50.890541,4.336561
STIB-4277,STADE,50.894019,4.332238
STIB-4287,INTERNAT. SCHOOL,50.792197,4.419611
STIB-4288,INTERNAT. SCHOOL,50.792179,4.41937
STIB-4289,ETANGS BOITSFORT,50.794104,4.418493
STIB-4290,KATTENBERG,50.790516,4.420068
STIB-4292,ETANGS BOITSFORT,50.793934,4.41791
STIB-4293,BRILLANT,50.811909,4.401854
STIB-4294,TERCOIGNE,50.812313,4.404749
STIB-4295,GARDON,50.812744,4.410509
STIB-4296,BERENSHEIDE,50.813685,4.414881
STIB-4297,BEAULIEU,50.815413,4.408214
STIB-4298,MICHIELS,50.814776,4.403204
STIB-4299,BRILLANT,50.811774,4.401045
STIB-4303,GERMOIR,50.829929,4.37866
STIB-4304,RODIN,50.827285,4.381952
STIB-4305,DELPORTE,50.824183,4.385896
STIB-4306,ETTERBEEK GARE,50.821675,4.388989
STIB-4307,THYS,50.817848,4.392422
STIB-4308,RELAIS,50.811687,4.393043
STIB-4309,ARCADES,50.810242,4.397021
STIB-4310,KEYM,50.809616,4.403442
STIB-4311,VANDER ELST,50.805205,4.406721
STIB-4313,LES 3 TILLEULS,50.802583,4.412501
STIB-4314,CERISAIE,50.802617,4.418772
STIB-4315,FAUCONNERIE,50.801357,4.422388
STIB-4318,WIENER,50.798643,4.419774
STIB-4319,EQUIPAGES,50.787402,4.422597
STIB-4340,WIENER,50.798627,4.420494
STIB-4341,DIABOLO,50.796612,4.417673
STIB-4342,DIABOLO,50.796333,4.417673
STIB-4344,CERISAIE,50.802779,4.418474
STIB-4345,FAUCONNERIE,50.801519,4.422108
STIB-4347,MIRAVAL,50.799796,4.414442
STIB-4348,MIRAVAL,50.800227,4.414017
STIB-4349,WIENER,50.798535,4.419065
STIB-4351,WIENER,50.798677,4.41915
STIB-4355,LES 3 TILLEULS,50.802745,4.41287
STIB-4357,VANDER ELST,50.805415,4.40675
STIB-4358,KEYM,50.81003,4.403172
STIB-4359,ARCADES,50.810481,4.396748
STIB-4360,RELAIS,50.812046,4.392405
STIB-4362,THYS,50.81753,4.392642
STIB-4363,ETTERBEEK GARE,50.8219,4.388876
STIB-4364,DELPORTE,50.824345,4.385783
STIB-4365,RODIN,50.827537,4.381838
STIB-4366,GERMOIR,50.829272,4.379696
STIB-4367B,LUXEMBOURG,50.838176,4.372821
STIB-4369,ARSENAL,50.825718,4.397862
STIB-4370,LUXEMBOURG,50.839512,4.371208
STIB-4401,LOUTRIER,50.810748,4.407132
STIB-4402,HANNETONS,50.810919,4.411512
STIB-4403,ARCHIDUCS,50.809485,4.416856
STIB-4405,PECHERIES,50.813198,4.417236
STIB-4407,VIGNETTE,50.814222,4.419678
STIB-4408,TRITOMAS,50.81094,4.418766
STIB-4449,TRITOMAS,50.810857,4.418484
STIB-4452,PECHERIES,50.81282,4.417406
STIB-4454,ARCHIDUCS,50.810259,4.416127
STIB-4455,HANNETONS,50.81102,4.411197
STIB-4456,LOUTRIER,50.810757,4.407004
STIB-4500,RTL HOUSE,50.856891,4.408249
STIB-4501F,STALLE (P),50.795271,4.318735
STIB-4502F,STALLE (P),50.794434,4.319624
STIB-4505,MOMMAERTS,50.856889,4.413007
STIB-4555,PAUL LEDUC,50.860735,4.403898
STIB-4556B,GENEVE,50.864192,4.403284
STIB-4558,RTL HOUSE,50.857268,4.408122
STIB-4594,DUCHESSE BRABANT,50.849635,4.328818
STIB-4595,DUCHESSE BRABANT,50.849457,4.330322
STIB-4598,BROEK,50.862838,4.287581
STIB-4599,MARICOLLES,50.860098,4.288077
STIB-4600,CIMETIERES,50.85609,4.289959
STIB-4601,ELBERS,50.855239,4.295158
STIB-4602,HOOGBOSCH,50.85543,4.298708
STIB-4653,HOOGBOSCH,50.855484,4.298467
STIB-4655,ELBERS,50.855293,4.294973
STIB-4656,CIMETIERES,50.856278,4.289902
STIB-4657,MARICOLLES,50.86025,4.288191
STIB-4658,THYM,50.856714,4.302963
STIB-4659,CANDRIES,50.855632,4.306249
STIB-4661B,BROEK,50.863333,4.286893
STIB-4705,WASHINGTON,50.821867,4.363587
STIB-4804B,MERCURE,50.796825,4.356449
STIB-4854C,OBSERVATOIRE,50.799876,4.358382
STIB-4856B,OBSERVATOIRE,50.799526,4.35773
STIB-4857B,OBSERVATOIRE,50.799553,4.358567
STIB-4952,PORTE DE NAMUR,50.838883,4.363086
STIB-4955F,STUYVENBERGH,50.886272,4.342107
STIB-4956,STUYVENBERGH,50.886506,4.341609
STIB-4957,STUYVENBERGH,50.886299,4.341538
STIB-4958F,STUYVENBERGH,50.886397,4.342466
STIB-5001F,DE WAND,50.895267,4.355039
STIB-5003,ERNEST SALU,50.884228,4.337802
STIB-5006,DEMINEURS,50.87764,4.332876
STIB-5007F,WOESTE,50.874163,4.333773
STIB-5008F,ODON WARLAND,50.870424,4.334721
STIB-5009B,BELGICA,50.867474,4.336065
STIB-5009G,BELGICA,50.867465,4.33608
STIB-5011,VANDERSTICHELEN,50.865942,4.338815
STIB-5011F,VANDERSTICHELEN,50.865946,4.338822
STIB-5013B,RIBAUCOURT,50.86023,4.340888
STIB-5013F,RIBAUCOURT,50.860212,4.340871
STIB-5014,SAINCTELETTE,50.858981,4.344891
STIB-5015,JUBILE,50.861254,4.3383
STIB-5016F,STEPHANIE,50.833327,4.357041
STIB-5017,STEPHANIE,50.832607,4.3568
STIB-5018,FAIDER,50.829515,4.35585
STIB-5018F,FAIDER,50.829515,4.35585
STIB-5020,MA CAMPAGNE,50.822287,4.353339
STIB-5021,DARWIN,50.818151,4.350715
STIB-5022,MOLIERE,50.815718,4.349216
STIB-5024,MESSIDOR,50.809808,4.345455
STIB-5025,BOETENDAEL,50.80664,4.343477
STIB-5026,HEROS,50.803308,4.341358
STIB-5027,DIEWEG,50.795614,4.348908
STIB-5028,THEVENET,50.794729,4.352442
STIB-5029,LANCASTER,50.794671,4.357873
STIB-5032B,ALPHONSE XIII,50.79104,4.36895
STIB-5039,DA VINCI,50.876747,4.412529
STIB-5040,DA VINCI,50.876145,4.410823
STIB-5041F,DA VINCI,50.876787,4.411827
STIB-5042,DA VINCI,50.876177,4.410772
STIB-5044,DA VINCI,50.876795,4.414716
STIB-5045,DA VINCI,50.874929,4.412712
STIB-5046,DA VINCI,50.874586,4.413341
STIB-5048,DA VINCI,50.876145,4.41044
STIB-5053B,ALPHONSE XIII,50.791229,4.368303
STIB-5056,LANCASTER,50.794599,4.356511
STIB-5057,THEVENET,50.794746,4.352567
STIB-5058,HEROS,50.803542,4.341571
STIB-5058F,HEROS,50.803658,4.341653
STIB-5059,BOETENDAEL,50.807578,4.344131
STIB-5060,MESSIDOR,50.810843,4.346215
STIB-5062,MOLIERE,50.816533,4.349794
STIB-5063,DARWIN,50.818961,4.35134
STIB-5064,MA CAMPAGNE,50.822503,4.353595
STIB-5066,FAIDER,50.830054,4.356105
STIB-5066F,FAIDER,50.830045,4.356076
STIB-5067,STEPHANIE,50.832778,4.35697
STIB-5068F,STEPHANIE,50.833556,4.357177
STIB-5071,SAINCTELETTE,50.859349,4.344522
STIB-5072,RIBAUCOURT,50.860418,4.340473
STIB-5074,VANDERSTICHELEN,50.866217,4.338437
STIB-5074F,VANDERSTICHELEN,50.866207,4.338439
STIB-5076B,BELGICA,50.867752,4.335611
STIB-5076G,BELGICA,50.867743,4.335639
STIB-5077,ODON WARLAND,50.87088,4.334657
STIB-5078F,WOESTE,50.8752,4.333587
STIB-5079,DEMINEURS,50.877973,4.332833
STIB-5082,ERNEST SALU,50.884721,4.338988
STIB-5086F,DE WAND,50.895282,4.355491
STIB-5088F,CIM. DE JETTE,50.879789,4.33448
STIB-5089,JUBILE,50.861667,4.338228
STIB-5090F,CIM. DE JETTE,50.880077,4.33492
STIB-5092F,GUILL. DE GREEF,50.882621,4.335572
STIB-5093F,GUILL. DE GREEF,50.882239,4.33543
STIB-5100B,WIELS,50.824088,4.326841
STIB-5101B,WIELS,50.823845,4.325919
STIB-5102,AZUR,50.866669,4.28713
STIB-5102F,AZUR,50.86665,4.287285
STIB-5103,HUNDERENVELD,50.866952,4.281744
STIB-5104F,GROOT-BIJGAARDEN,50.86716,4.275414
STIB-5105,VEREMAN,50.865359,4.292486
STIB-5105F,VEREMAN,50.865323,4.292571
STIB-5107B,BERTHELOT,50.824125,4.330971
STIB-5108,BOSSAERT-BASILIQ.,50.865427,4.318808
STIB-5109,BESME,50.863488,4.325287
STIB-5111B,BERTHELOT,50.824332,4.33073
STIB-5115,ROCHEFORT,50.82436,4.335499
STIB-5115F,ROCHEFORT,50.824369,4.335499
STIB-5116,BERTHELOT,50.824238,4.329965
STIB-5119,CHATAIGNES,50.817165,4.32523
STIB-5120,UNION,50.819574,4.32554
STIB-5121F,FOREST CENTRE,50.81194,4.319148
STIB-5123,WIELS,50.823683,4.326075
STIB-5151,UNION,50.820671,4.325908
STIB-5155,CHATAIGNES,50.817372,4.325376
STIB-5158,BERTHELOT,50.824214,4.331127
STIB-5159,WIELS,50.824878,4.32633
STIB-5159F,WIELS,50.824878,4.326316
STIB-5165,BESME,50.863892,4.324406
STIB-5166,BOSSAERT-BASILIQ.,50.865561,4.318406
STIB-5168,VEREMAN,50.865288,4.292926
STIB-5168F,VEREMAN,50.865279,4.292912
STIB-5169F,GROOT-BIJGAARDEN,50.867151,4.27479
STIB-5170,HUNDERENVELD,50.867042,4.281318
STIB-5172F,COLLEGE S.-COEUR,50.867115,4.313479
STIB-5174,AZUR,50.866725,4.286958
STIB-5174F,AZUR,50.866731,4.286858
STIB-5175,WIELS,50.824182,4.327395
STIB-5200F,ROFFIAEN,50.81968,4.381652
STIB-5205,ETTERBEEK GARE,50.822175,4.388833
STIB-5208,CAMBRE-ETOILE,50.816372,4.376301
STIB-5210,BASCULE,50.814979,4.367815
STIB-5211,LONGCHAMP,50.811923,4.367234
STIB-5212,GOSSART,50.811392,4.361586
STIB-5213,CAVELL,50.811554,4.356734
STIB-5219F,CHURCHILL,50.812147,4.352676
STIB-5220F,CHURCHILL,50.811805,4.354662
STIB-5221F,CHURCHILL,50.812039,4.353087
STIB-5222F,CHURCHILL,50.81168,4.355358
STIB-5223F,PARC DES SOURCES,50.837131,4.435076
STIB-5224F,PARC DES SOURCES,50.836827,4.434906
STIB-5225F,VOOT,50.840564,4.436723
STIB-5226F,VOOT,50.839505,4.435861
STIB-5227F,WOLUWE SHOPPING,50.844597,4.438395
STIB-5228F,WOLUWE SHOPPING,50.844246,4.438232
STIB-5229F,ROODEBEEK,50.847523,4.436331
STIB-5230F,ROODEBEEK,50.847593,4.4369
STIB-5253,CAVELL,50.811401,4.358465
STIB-5254,GOSSART,50.811455,4.363275
STIB-5255,LONGCHAMP,50.811977,4.367858
STIB-5255F,LONGCHAMP,50.811977,4.367858
STIB-5256,BASCULE,50.814988,4.368213
STIB-5256F,BASCULE,50.81506,4.368552
STIB-5258,CAMBRE-ETOILE,50.816489,4.377479
STIB-5261,ETTERBEEK GARE,50.822385,4.389373
STIB-5264F,ROFFIAEN,50.819997,4.383243
STIB-5265F,VUB,50.824744,4.394023
STIB-5266F,VUB,50.824529,4.393507
STIB-5267,ARSENAL,50.826617,4.397695
STIB-5269F,AUDERGHEM-SHOP.,50.816286,4.426179
STIB-5270F,ROND-PT SOUVERAIN,50.819305,4.429092
STIB-5271F,EMPAIN,50.824976,4.431867
STIB-5272F,MUSEE DU TRAM,50.83233,4.432595
STIB-5273,MUSEE DU TRAM,50.832238,4.43246
STIB-5273F,MUSEE DU TRAM,50.832276,4.432445
STIB-5274F,PENTATHLON,50.860596,4.40152
STIB-5275F,EVERE SHOPPING,50.867644,4.40286
STIB-5277F,LEKAERTS,50.871868,4.406657
STIB-5278F,EVERE SHOPPING,50.866727,4.402505
STIB-5279F,PENTATHLON,50.860474,4.401537
STIB-5281G,MUSEE DU TRAM,50.83142,4.432911
STIB-5282F,EMPAIN,50.82399,4.431503
STIB-5283F,ROND-PT SOUVERAIN,50.819218,4.428635
STIB-5284F,AUDERGHEM-SHOP.,50.815982,4.425908
STIB-5287,MUSEE DU TRAM,50.831884,4.432601
STIB-5296B,BIZET,50.825126,4.297987
STIB-5297B,BIZET,50.825454,4.298142
STIB-5298,BORDET STATION,50.87886,4.409987
STIB-5298F,BORDET STATION,50.878941,4.409945
STIB-5299,BORDET STATION,50.878788,4.410101
STIB-5299F,BORDET STATION,50.878788,4.410101
STIB-5303,DEMOLDER,50.871801,4.380544
STIB-5305G,LOUIS BERTRAND,50.865454,4.385091
STIB-5306G,HELIOTROPES,50.862532,4.386934
STIB-5307H,CHAZAL,50.860428,4.393069
STIB-5308,LEOPOLD III,50.856759,4.397583
STIB-5308F,LEOPOLD III,50.85675,4.397569
STIB-5311,ARSENAL,50.826403,4.397188
STIB-5312,PETILLON,50.829295,4.402321
STIB-5313,KONKEL,50.841997,4.451611
STIB-5315,SCHAERBEEK GARE,50.877411,4.379423
STIB-5317G,HOP. PAUL BRIEN,50.868018,4.385362
STIB-5320,SCHAERBEEK GARE,50.878122,4.380216
STIB-5350G,HOP. PAUL BRIEN,50.868924,4.384672
STIB-5352,PETILLON,50.829546,4.402804
STIB-5354H,LEOPOLD III,50.857047,4.397456
STIB-5355F,CHAZAL,50.861129,4.391336
STIB-5356,HELIOTROPES,50.863513,4.385826
STIB-5357,LOUIS BERTRAND,50.866751,4.385363
STIB-5359,DEMOLDER,50.872251,4.379834
STIB-5361,BORDET STATION,50.878442,4.409805
STIB-5361F,BORDET STATION,50.878456,4.409817
STIB-5362,BORDET STATION,50.878099,4.409958
STIB-5362F,BORDET STATION,50.878141,4.409916
STIB-5398F,POLYCL. BRUGMANN,50.889208,4.334082
STIB-5399F,POLYCL. BRUGMANN,50.889039,4.334672
STIB-5400,STADE,50.893407,4.332111
STIB-5402,STIENON,50.890647,4.330038
STIB-5403,HOPITAL BRUGMANN,50.886036,4.333523
STIB-5404,BAILLI,50.826837,4.364068
STIB-5405,STEPHANIE,50.832985,4.357751
STIB-5406,DEFACQZ,50.828607,4.36228
STIB-5407,ULB,50.814061,4.384119
STIB-5407F,ULB,50.814061,4.384119
STIB-5408,VLEURGAT,50.82298,4.368042
STIB-5409,ABBAYE,50.818926,4.370739
STIB-5413F,SOLBOSCH,50.810503,4.385857
STIB-5414F,MARIE-JOSE,50.806384,4.387635
STIB-5415,BRESIL,50.802634,4.390584
STIB-5415F,BRESIL,50.802634,4.390584
STIB-5416,BOONDAEL GARE,50.801169,4.393449
STIB-5416F,BOONDAEL GARE,50.801169,4.393449
STIB-5417F,HIPPOD. BOITSFORT,50.796702,4.398927
STIB-5420F,BOITSFORT GARE,50.795447,4.407814
STIB-5421,DELLEUR,50.795733,4.413573
STIB-5422,WIENER,50.798194,4.418753
STIB-5423,FAUCONNERIE,50.801015,4.422699
STIB-5424,HIPPOD. BOITSFORT,50.797123,4.394944
STIB-5426,HERRMANN-DEBROUX,50.811881,4.42782
STIB-5427,HERRMANN-DEBROUX,50.811647,4.427621
STIB-5430,FAUCONNERIE,50.800907,4.422359
STIB-5449F,HIPPOD. BOITSFORT,50.7968,4.398446
STIB-5451,BOONDAEL GARE,50.801438,4.393009
STIB-5451F,BOONDAEL GARE,50.801438,4.393009
STIB-5452,WIENER,50.79814,4.418256
STIB-5453,DELLEUR,50.795651,4.412956
STIB-5454F,BOITSFORT GARE,50.795593,4.406981
STIB-5458,GENDARMES,50.799463,4.379178
STIB-5459,BRESIL,50.80286,4.390383
STIB-5459F,BRESIL,50.802854,4.390373
STIB-5460F,MARIE-JOSE,50.806653,4.387677
STIB-5461F,SOLBOSCH,50.810834,4.385835
STIB-5462F,ULB,50.813657,4.384332
STIB-5466,ABBAYE,50.819834,4.370512
STIB-5467,VLEURGAT,50.824108,4.366996
STIB-5468,JEANNE,50.8155,4.383566
STIB-5469,DEFACQZ,50.829416,4.361541
STIB-5470,STEPHANIE,50.833183,4.357651
STIB-5471,HOPITAL BRUGMANN,50.886216,4.333964
STIB-5472,STIENON,50.890881,4.330308
STIB-5474,STADE,50.893839,4.331926
STIB-5475,BAILLI,50.827628,4.363358
STIB-5480,LA CHASSE,50.830979,4.389845
STIB-5501,GJ MARTIN,50.836753,4.41154
STIB-5502,LEOPOLD II,50.836257,4.41523
STIB-5503,JULES CESAR,50.834663,4.421915
STIB-5504,CHIEN VERT,50.835002,4.428247
STIB-5507,DE VILLALOBAR,50.82784,4.438996
STIB-5508,MADOUX,50.827135,4.444942
STIB-5509,RUE AU BOIS,50.831131,4.451677
STIB-5510,AVIATION,50.834696,4.456609
STIB-5512,ESCRIME,50.838719,4.463992
STIB-5515,DE BURBURE,50.845317,4.47354
STIB-5516,BEL-AIR,50.845853,4.479758
STIB-5517,LOUIS MARCELIS,50.846268,4.484802
STIB-5518,RUISSEAU,50.846818,4.491262
STIB-5519,TER MEEREN,50.844993,4.499935
STIB-5520F,BAN-EIK,50.842114,4.502611
STIB-5521,TER MEEREN,50.845288,4.499688
STIB-5522,RUISSEAU,50.846828,4.490782
STIB-5523,LOUIS MARCELIS,50.84627,4.484267
STIB-5524,BEL-AIR,50.845869,4.479264
STIB-5525,DE BURBURE,50.845335,4.473043
STIB-5528F,BAN-EIK,50.842397,4.502451
STIB-5529,AMITIE,50.844605,4.465019
STIB-5530,AMITIE,50.844608,4.46451
STIB-5531,GJ MARTIN,50.836834,4.411412
STIB-5532,EGLANTIERS,50.844774,4.467008
STIB-5533,EGLANTIERS,50.844783,4.466496
STIB-5551,ESCRIME,50.838098,4.46316
STIB-5553,AVIATION,50.834894,4.456936
STIB-5554,RUE AU BOIS,50.830978,4.451379
STIB-5555,MADOUX,50.827387,4.444659
STIB-5556,DE VILLALOBAR,50.827858,4.438684
STIB-5559,CHIEN VERT,50.835083,4.427821
STIB-5560,JULES CESAR,50.83496,4.420425
STIB-5561F,LEOPOLD II,50.836232,4.415438
STIB-5562,GJ MARTIN,50.837595,4.412111
STIB-5611,MUSEE D'IXELLES,50.829965,4.369547
STIB-5612,MUSEE D'IXELLES,50.829785,4.369746
STIB-5700G,DE WAND,50.895098,4.357463
STIB-5701,ESPLANADE,50.900108,4.348126
STIB-5704F,ARAUCARIA,50.892871,4.363956
STIB-5705,BUISSONNETS,50.891291,4.368867
STIB-5710F,VERBOEKHOVEN,50.871388,4.375288
STIB-5711F,PAVILLON,50.869258,4.370997
STIB-5714,THOMAS,50.865348,4.362872
STIB-5715F,HEEMBEEK,50.886989,4.376573
STIB-5716F,HEEMBEEK,50.887374,4.37641
STIB-5717F,HEEMBEEK,50.887012,4.376683
STIB-5718,ORBAN,50.826901,4.327151
STIB-5735,GILLON,50.855891,4.366991
STIB-5740,VERBOEKHOVEN,50.871379,4.375217
STIB-5741,PAVILLON,50.869914,4.371608
STIB-5742B,STEPHENSON,50.869591,4.36719
STIB-5757,ORBAN,50.82727,4.327492
STIB-5757F,ORBAN,50.827279,4.327477
STIB-5758F,DOCKS BRUXSEL,50.879173,4.374834
STIB-5759F,DOCKS BRUXSEL,50.879569,4.374806
STIB-5760,DOCKS BRUXSEL,50.878679,4.37712
STIB-5761,DOCKS BRUXSEL,50.878903,4.37669
STIB-5762,THOMAS,50.865689,4.364534
STIB-5765F,PAVILLON,50.869555,4.371338
STIB-5766,VERBOEKHOVEN,50.871128,4.376282
STIB-5772,BUISSONNETS,50.891533,4.368331
STIB-5773,ARAUCARIA,50.8937,4.362556
STIB-5776,ESPLANADE,50.900459,4.348084
STIB-5779,DE WAND,50.895188,4.355108
STIB-5781F,ANCRE,50.890145,4.377451
STIB-5782F,ANCRE,50.890338,4.377721
STIB-5783F,ZAVELPUT,50.893951,4.382853
STIB-5784F,ZAVELPUT,50.894329,4.382867
STIB-5785F,PETER BENOIT,50.895101,4.38726
STIB-5786F,PETER BENOIT,50.895523,4.389136
STIB-5787F,CHEMIN VERT,50.896448,4.393529
STIB-5788F,CHEMIN VERT,50.896664,4.394069
STIB-5789F,NELSON MANDELA,50.898857,4.397553
STIB-5790F,NELSON MANDELA,50.899072,4.398079
STIB-5791F,M. YOURCENAR,50.902695,4.397882
STIB-5792F,M. YOURCENAR,50.903054,4.398209
STIB-5793F,SIMONE VEIL,50.904986,4.401154
STIB-5794F,SIMONE VEIL,50.905166,4.401729
STIB-5795G,MERCATOR,50.90838,4.395715
STIB-5796G,MERCATOR,50.908451,4.395445
STIB-5797F,HOPITAL MILITAIRE,50.908279,4.389796
STIB-5798F,HOPITAL MILITAIRE,50.907965,4.389397
STIB-5801,PAIX,50.876904,4.400878
STIB-5802,TILLEUL,50.87592,4.392843
STIB-5803G,HELMET,50.873428,4.386924
STIB-5804G,FOYER SCHAERBEEK.,50.871651,4.384372
STIB-5805,WAELHEM,50.870156,4.382107
STIB-5806,DE WAND,50.895399,4.356785
STIB-5810,TIMMERMANS,50.818572,4.340952
STIB-5811,MOLIERE-LONGCHAMP,50.816262,4.339974
STIB-5813,ROOSENDAEL,50.810319,4.337566
STIB-5817,UCCLE CALEVOET,50.791986,4.332798
STIB-5817F,UCCLE CALEVOET,50.791821,4.332703
STIB-5823,CREMATORIUM,50.784415,4.328056
STIB-5824,CREMATORIUM,50.78483,4.328375
STIB-5825,ENGELAND,50.788856,4.333542
STIB-5826,BOURDON,50.786881,4.329615
STIB-5827F,GLOBE,50.80061,4.33648
STIB-5828F,XAVIER DE BUE,50.804197,4.33669
STIB-5829F,XAVIER DE BUE,50.803019,4.336592
STIB-5830F,BENS,50.807235,4.336844
STIB-5831F,BENS,50.807469,4.336801
STIB-5832F,ROOSENDAEL,50.810714,4.337778
STIB-5833F,ROOSENDAEL,50.809636,4.337297
STIB-5834F,COGHEN,50.813241,4.338827
STIB-5835F,COGHEN,50.812899,4.338628
STIB-5836F,ALTITUDE CENT,50.816971,4.336994
STIB-5837F,ALTITUDE CENT,50.816566,4.336214
STIB-5838F,JUPITER,50.819596,4.337148
STIB-5839F,JUPITER,50.81947,4.336808
STIB-5853B,GLOBE,50.799455,4.336493
STIB-5853G,GLOBE,50.799531,4.336466
STIB-5856,ROOSENDAEL,50.810063,4.337543
STIB-5858,MOLIERE-LONGCHAMP,50.816405,4.340144
STIB-5859,TIMMERMANS,50.818968,4.341236
STIB-5860,BOURDON,50.787161,4.329852
STIB-5865,WAELHEM,50.870061,4.381499
STIB-5866,FOYER SCHAERBEEK.,50.871929,4.384974
STIB-5867F,HELMET,50.874138,4.38772
STIB-5868,TILLEUL,50.875809,4.392352
STIB-5872,PAIX,50.876949,4.400835
STIB-5874F,LEKAERTS,50.871499,4.406216
STIB-5905,AQUIRIS,50.903895,4.412156
STIB-5906,RIVE DROITE,50.901712,4.408686
STIB-5908,CERES,50.89543,4.402952
STIB-5910,CHEMIN DE FER,50.889409,4.397078
STIB-5911B,PONT ALBERT,50.881474,4.382494
STIB-5913,MONNOYER,50.885481,4.390023
STIB-5915,FOREST CENTRE,50.812101,4.318878
STIB-5916,EGIDE VAN OPHEM,50.79622,4.324184
STIB-5916F,EGIDE VAN OPHEM,50.796219,4.324185
STIB-5917,WAGON,50.796832,4.329461
STIB-5917F,WAGON,50.796829,4.32947
STIB-5920C,CARREFOUR STALLE,50.795966,4.320384
STIB-5920H,CARREFOUR STALLE,50.795961,4.32017
STIB-5921B,CARREFOUR STALLE,50.795942,4.320812
STIB-5921G,CARREFOUR STALLE,50.79593,4.320966
STIB-5922,EGGERGAT,50.794272,4.312968
STIB-5923,EGGERGAT,50.795119,4.31595
STIB-5952,WAGON,50.796751,4.329048
STIB-5952F,WAGON,50.796742,4.32905
STIB-5953,EGIDE VAN OPHEM,50.796311,4.323759
STIB-5953F,EGIDE VAN OPHEM,50.796318,4.323759
STIB-5958C,PONT ALBERT,50.882253,4.38462
STIB-5959,CHEMIN DE FER,50.888744,4.396438
STIB-5961,CERES,50.895385,4.403336
STIB-5965,MONNOYER,50.885437,4.39041
STIB-5967,RIVE DROITE,50.901505,4.408885
STIB-5968,AQUIRIS,50.903499,4.412256
STIB-6004,MENNEKENS,50.853893,4.316207
STIB-6005,JOSEPH BAECK,50.851744,4.316905
STIB-6008,ACACIAS,50.834302,4.393363
STIB-6009,ACACIAS,50.834115,4.393126
STIB-6014,GILLON,50.855792,4.367006
STIB-6017,HOUWAERT,50.852987,4.373581
STIB-6018,STEURS,50.852825,4.378168
STIB-6019,FUSS,50.853948,4.380753
STIB-6020,CLAYS,50.853914,4.383279
STIB-6021,CHASSEURS ARDEN.,50.849259,4.389462
STIB-6022B,WAPPERS,50.845027,4.395125
STIB-6023,JAMBLINNE DE MEUX,50.846809,4.393402
STIB-6024,CHEVALERIE,50.842637,4.395658
STIB-6053,CHEVALERIE,50.842763,4.395899
STIB-6054B,WAPPERS,50.84484,4.395358
STIB-6055,JAMBLINNE DE MEUX,50.84706,4.39326
STIB-6056,CHASSEURS ARDEN.,50.849111,4.389839
STIB-6058,CLAYS,50.853903,4.383962
STIB-6059,FUSS,50.853517,4.380696
STIB-6060,STEURS,50.852933,4.377799
STIB-6061,BOSSUET,50.85387,4.373165
STIB-6062,RUE TRAVERSIERE,50.854551,4.368894
STIB-6068,BARA,50.838807,4.33705
STIB-6070,JOSEPH BAECK,50.852014,4.316947
STIB-6071,MENNEKENS,50.855826,4.316659
STIB-6077F,LOMBARDIE,50.824474,4.346856
STIB-6078,LOMBARDIE,50.824336,4.347222
STIB-6081B,FERNAND LEGER,50.875408,4.410155
STIB-6082,LUTHER,50.849327,4.38565
STIB-6099,AVENUE DU ROI,50.831452,4.3345
STIB-6100,MOORSLEDE,50.877572,4.351034
STIB-6106,BETHLEEM,50.830132,4.337425
STIB-6109,MORIS,50.824156,4.350302
STIB-6112,FLAGEY,50.828273,4.372017
STIB-6113F,GERMOIR,50.829955,4.379824
STIB-6114F,EGLISE ST-ANTOINE,50.8299,4.386634
STIB-6117,PLACE ST-PIERRE,50.83727,4.396066
STIB-6120,DAUTZENBERG,50.827628,4.36729
STIB-6121F,GUILLAUME TELL,50.828128,4.341869
STIB-6122,PRINC. CLEMENTINE,50.877132,4.353791
STIB-6123,MASUI,50.868871,4.362104
STIB-6153,PLACE ST-PIERRE,50.837081,4.395711
STIB-6155F,LA CHASSE,50.830431,4.389192
STIB-6156F,EGLISE ST-ANTOINE,50.829852,4.386154
STIB-6157F,GERMOIR,50.829919,4.379554
STIB-6158,LEVURE,50.828018,4.375186
STIB-6158H,LEVURE,50.828028,4.375196
STIB-6162,MORIS,50.824363,4.350784
STIB-6165,GUILLAUME TELL,50.828698,4.340716
STIB-6166,BETHLEEM,50.829907,4.33805
STIB-6171,MOORSLEDE,50.877518,4.35031
STIB-6172,JACOBS FONTAINE,50.878928,4.342935
STIB-6173,PRINCE LEOPOLD,50.883144,4.341753
STIB-6174F,PRINC. CLEMENTINE,50.876997,4.354658
STIB-6175,AVENUE DU ROI,50.83183,4.333762
STIB-6190,BRABANCONNE,50.852119,4.387783
STIB-6191,BRABANCONNE,50.851728,4.387294
STIB-6201F,LEFRANCQ,50.861404,4.368416
STIB-6202F,ROBIANO,50.86079,4.371323
STIB-6204F,PATRIE,50.85623,4.391249
STIB-6209,BERKENDAEL,50.818079,4.346047
STIB-6210,BIENFAITEURS,50.857731,4.383811
STIB-6214,PATRIE,50.856167,4.391746
STIB-6253,BERKENDAEL,50.817656,4.34616
STIB-6258F,PATRIE,50.856734,4.391036
STIB-6260F,LEFRANCQ,50.861626,4.367787
STIB-6302,EENENS,50.868269,4.375472
STIB-6303,POGGE,50.866389,4.375027
STIB-6304,EGLISE ST-SERVAIS,50.864062,4.373326
STIB-6308,CONGRES,50.850418,4.364228
STIB-6308F,CONGRES,50.850416,4.364237
STIB-6309F,PARC,50.84699,4.362456
STIB-6313F,POELAERT,50.837012,4.353406
STIB-6314,LOUISE,50.835673,4.355167
STIB-6352,POELAERT,50.837219,4.353264
STIB-6353,PETIT SABLON,50.839354,4.355459
STIB-6354B,ROYALE,50.841545,4.358548
STIB-6355,PALAIS,50.843837,4.360876
STIB-6356,PARC,50.846613,4.362363
STIB-6356F,PARC,50.846613,4.362353
STIB-6357,CONGRES,50.850684,4.364438
STIB-6357F,CONGRES,50.850687,4.364431
STIB-6359,GILLON,50.855891,4.36719
STIB-6359F,GILLON,50.856062,4.367219
STIB-6361,LOUISE,50.835888,4.355039
STIB-6363,EGLISE ST-SERVAIS,50.864263,4.3735
STIB-6364F,POGGE,50.866606,4.375486
STIB-6365,EENENS,50.868611,4.374847
STIB-6369,MERIDIEN,50.856809,4.369347
STIB-6406,LEPOUTRE,50.819878,4.3594
STIB-6408,LEPOUTRE,50.819959,4.359159
STIB-6409F,SAINTE-MARIE,50.858974,4.369732
STIB-6410,SAINTE-MARIE,50.858169,4.368372
STIB-6411,SAINTE-MARIE,50.858091,4.368127
STIB-6412F,SAINTE-MARIE,50.858048,4.36817
STIB-6416F,ROBIANO,50.860089,4.371153
STIB-6418,ROBIANO,50.860305,4.371337
STIB-6419F,ROBIANO,50.860979,4.370727
STIB-6420G,VANDERKINDERE,50.814339,4.348376
STIB-6421F,VANDERKINDERE,50.813378,4.348149
STIB-6422F,VANDERKINDERE,50.813198,4.34856
STIB-6423F,VANDERKINDERE,50.812915,4.34744
STIB-6424F,VANDERKINDERE,50.814348,4.34751
STIB-6425F,JANSON,50.825541,4.355141
STIB-6427F,JANSON,50.825451,4.354346
STIB-6428,JANSON,50.825964,4.354644
STIB-6428F,JANSON,50.825784,4.354601
STIB-6430,JANSON,50.826009,4.354786
STIB-6430F,JANSON,50.826144,4.354828
STIB-6432,TRONE,50.840537,4.366324
STIB-6433,TRONE,50.840315,4.367127
STIB-6434F,BOTANIQUE,50.853704,4.365987
STIB-6435,BOTANIQUE,50.853536,4.366082
STIB-6436,BOTANIQUE,50.853078,4.366146
STIB-6437F,BOTANIQUE,50.853365,4.365756
STIB-6438,BOTANIQUE,50.853715,4.36577
STIB-6439,MONTANA,50.799589,4.376795
STIB-6440,MONTANA,50.799585,4.376343
STIB-6442,GARE CENTRALE,50.846506,4.359369
STIB-6443,GARE CENTRALE,50.845957,4.35809
STIB-6444,GARE CENTRALE,50.845927,4.357792
STIB-6445,GARE CENTRALE,50.845858,4.357294
STIB-6448,DIAMANT,50.849465,4.402304
STIB-6449,DIAMANT,50.848712,4.401753
STIB-6450,DIAMANT,50.848802,4.401668
STIB-6451,DIAMANT,50.849103,4.401571
STIB-6453,WASHINGTON,50.821838,4.36282
STIB-6454,DIAMANT,50.849234,4.40154
STIB-6456F,PRINC. ELISABETH,50.873267,4.377632
STIB-6457F,PRINC. ELISABETH,50.87301,4.378128
STIB-6459G,PRINC. ELISABETH,50.872983,4.376875
STIB-6461G,PRINC. ELISABETH,50.872585,4.376544
STIB-6462F,MERODE,50.839301,4.399631
STIB-6463F,MERODE,50.839184,4.399971
STIB-6464,MAELBEEK,50.843725,4.378319
STIB-6465,MAELBEEK,50.843551,4.378072
STIB-6468,DEMEY,50.813187,4.422657
STIB-6469,DEMEY,50.81262,4.423124
STIB-6470F,ROBIANO,50.860394,4.37138
STIB-6471,ETANGS NOIRS,50.857234,4.332479
STIB-6472,THIEFFRY,50.832934,4.401811
STIB-6473,THIEFFRY,50.832846,4.401926
STIB-6474F,STOCKEL,50.84135,4.465339
STIB-6475F,STOCKEL,50.841009,4.465309
STIB-6476,TOMBERG,50.842837,4.424814
STIB-6477,TOMBERG,50.842932,4.425034
STIB-6481,ROI BAUDOUIN,50.89684,4.329706
STIB-6482,ROI BAUDOUIN,50.896813,4.329876
STIB-6483B,VEEWEYDE,50.830338,4.301111
STIB-6484B,VEEWEYDE,50.829745,4.300692
STIB-6485G,ESPLANADE,50.899576,4.348519
STIB-6486G,ESPLANADE,50.899681,4.348488
STIB-6504,JACOBS FONTAINE,50.878901,4.342438
STIB-6505,FOYER JETTOIS,50.878984,4.338516
STIB-6552,FOYER JETTOIS,50.879035,4.338118
STIB-6601,LEMONNIER,50.840381,4.340599
STIB-6604F,PORTE DE FLANDRE,50.853991,4.342195
STIB-6607,YSER,50.857741,4.348783
STIB-6608G,ARTS ET METIERS,50.847997,4.33778
STIB-6648,TRIANGLE,50.849969,4.334679
STIB-6648F,TRIANGLE,50.850009,4.334997
STIB-6649F,PORTE DE NINOVE,50.850667,4.338989
STIB-6650G,ARTS ET METIERS,50.847602,4.337914
STIB-6651,YSER,50.857525,4.34867
STIB-6653F,PORTE DE NINOVE,50.850353,4.338531
STIB-6654F,PORTE DE FLANDRE,50.853685,4.341809
STIB-6657,LEMONNIER,50.840048,4.340684
STIB-6659F,PTE D'ANDERLECHT,50.844281,4.339209
STIB-6702,BORNE,50.855459,4.335186
STIB-6705F,BARA,50.838915,4.337476
STIB-6706,SAVONNERIE,50.853178,4.331389
STIB-6754,BORNE,50.854151,4.335549
STIB-6755,COMTE DE FLANDRE,50.856013,4.338104
STIB-6792F,VAN BEETHOVEN,50.828862,4.292786
STIB-6799F,VAN BEETHOVEN,50.828656,4.292407
STIB-6800F,GARE DE JETTE,50.88024,4.330053
STIB-6803F,LENOIR,50.876838,4.328183
STIB-6804F,PLACE R. ASTRID,50.873369,4.325787
STIB-6805,BROUSTIN,50.867911,4.326561
STIB-6805F,BROUSTIN,50.86791,4.326554
STIB-6808G,CONSEIL,50.839317,4.32954
STIB-6809F,DOUVRES,50.836065,4.314026
STIB-6810,MEIR,50.832679,4.30178
STIB-6811,YSAYE,50.83078,4.297495
STIB-6812,MEIR,50.832679,4.30178
STIB-6856,YSAYE,50.830357,4.296602
STIB-6856B,YSAYE,50.830357,4.296602
STIB-6857,MEIR,50.832599,4.302702
STIB-6858G,DOUVRES,50.836122,4.314737
STIB-6860G,CONSEIL,50.83914,4.329839
STIB-6864F,BROUSTIN,50.868309,4.326364
STIB-6865F,MIROIR,50.871221,4.324418
STIB-6866F,PLACE R. ASTRID,50.873537,4.325971
STIB-6867F,LENOIR,50.876532,4.32805
STIB-6869G,GARE DE JETTE,50.880121,4.33042
STIB-7222,TERVUREN STATION,50.829481,4.513351
STIB-7223,OPPEMSTRAAT,50.825587,4.507233
STIB-7224,BRUSSELSESTEENWEG,50.821895,4.497642
STIB-7225,RAVENSTEIN,50.817488,4.48293
STIB-7236,SOLBOSCH,50.810506,4.385839
STIB-7303,BRUSSELSESTEENWEG,50.822983,4.501666
STIB-7304,OPPEMSTRAAT,50.825667,4.50858
STIB-7305,TERVUREN STATION,50.829605,4.513954
STIB-7330,DIEWEG,50.795596,4.348866
STIB-7331,THEVENET,50.794716,4.352426
STIB-7332,LANCASTER,50.794677,4.357854
STIB-7449,SOLBOSCH,50.810823,4.38584
STIB-7465,KEYENBEMPT,50.793425,4.32056
STIB-7468,GRAND'ROUTE,50.787383,4.316901
STIB-7469,DROGENBOS,50.784594,4.318938
STIB-7472,DROGENBOS,50.784693,4.31895
STIB-7474,GRAND'ROUTE,50.787735,4.317477
STIB-7498B,ULB,50.813636,4.384346
STIB-7501,HIPPODROME,50.84953,4.505415
STIB-7565,MADOUX,50.827539,4.444609
STIB-7671,EDDY MERCKX,50.816611,4.281609
STIB-7673,ERASME,50.815161,4.264249
STIB-7675,EDDY MERCKX,50.81636,4.282202
STIB-7715,STOCKEL,50.840322,4.465208
STIB-7753,AUMALE,50.839661,4.312403
STIB-7754,BIZET,50.825175,4.297453
STIB-7755,LA ROUE,50.820754,4.293579
STIB-7757,LA ROUE,50.820839,4.293811
STIB-7759,AUMALE,50.839787,4.312758
STIB-7830,HIPPODROME,50.849905,4.505075
STIB-7832,STOCKEL,50.84108,4.465552
STIB-7978,DE VILLALOBAR,50.82752,4.43897
STIB-7980,AUDERGHEM-FORET,50.818329,4.450255
STIB-7995,DE VILLALOBAR,50.82796,4.438667
STIB-8011,DE BROUCKERE,50.850095,4.352165
STIB-8012,DE BROUCKERE,50.849821,4.352486
STIB-0010106,4 - Boulevard Anspach,50.850262,4.35174
STIB-0010206,2 - Place De Brouckère,50.851997,4.353216
STIB-0010306,3 - Place De Brouckère,50.851161,4.35289
STIB-0010406,1 - Place De Brouckère,50.851404,4.352492
STIB-8021,GARE CENTRALE,50.846679,4.358551
STIB-0020807,8 - Rue de Loxum,50.846802,4.358656
STIB-8022,GARE CENTRALE,50.846349,4.358776
STIB-0020107,1 - Putterie,50.846092,4.358117
STIB-0020207,2 - Rue des Colonies,50.846496,4.35904
STIB-0020307,3 - Rue des Colonies,50.846263,4.359026
STIB-0020407,3 - Rue des Colonies,50.846236,4.358926
STIB-0020507,5 - Rue Montagne du Parc,50.846029,4.359338
STIB-0020607,6 - Putterie,50.845867,4.358373
STIB-0020707,7 - Rue de Loxum,50.846721,4.358344
STIB-8031,PARC,50.845628,4.362431
STIB-8032,PARC,50.845688,4.362979
STIB-0030108,1 - Rue Royale,50.846631,4.362561
STIB-8041,ARTS-LOI,50.845476,4.369121
STIB-8042,ARTS-LOI,50.845333,4.36962
STIB-0040109,1 - Rue de la Loi,50.845544,4.368085
STIB-0040209,2 - Rue de la Loi,50.845796,4.368071
STIB-0040309,3 - Avenue des Arts,50.845751,4.36915
STIB-0040409,4 - Avenue des Arts,50.845256,4.368951
STIB-0040509,5 - Boulevard du Régent,50.845912,4.368667
STIB-0040609,6 - Boulevard du Régent,50.845427,4.368411
STIB-8051,MAELBEEK,50.84379,4.377084
STIB-8052,MAELBEEK,50.843654,4.377588
STIB-0050110,1 - Chaussée d'Etterbeek,50.843571,4.378137
STIB-0050210,2 - Rue de la Loi,50.843836,4.376348
STIB-0050310,3 - Rue de la Loi,50.843871,4.377853
STIB-0050410,4 - Rue Joseph II,50.844761,4.376391
STIB-0050510,5 - Rue de la Loi,50.844078,4.376476
STIB-8061,SCHUMAN,50.842972,4.380974
STIB-8062,SCHUMAN,50.842756,4.381829
STIB-0060111,1 - Rue de la Loi,50.842819,4.380707
STIB-0060411,3 - Rond-point Schuman,50.842738,4.383234
STIB-0060511,2 - Rond-point Schuman,50.842325,4.383064
STIB-8071,MERODE,50.839534,4.397696
STIB-8072,MERODE,50.839363,4.398282
STIB-0070112,1 - Avenue de l'Yser,50.839787,4.397885
STIB-0070212,2 - Avenue de Tervuren,50.839517,4.398751
STIB-0070312,3 - Avenue des Celtes,50.839148,4.398296
STIB-0070412,4 - Avenue des Gaulois,50.839212,4.397586
STIB-0070512,7 - Square Princesse Jean de Mérode,50.8394,4.399432
STIB-0070612,8 - Rue des Tongres,50.838636,4.399645
STIB-8081,MONTGOMERY,50.837822,4.407364
STIB-8082,MONTGOMERY,50.837806,4.407955
STIB-0080113,1 - Square Maréchal Montgomery,50.837589,4.408777
STIB-0080213,2 - Boulevard Saint-Michel,50.83688,4.407977
STIB-0080313,3 - Square Maréchal Montgomery,50.83715,4.406756
STIB-0080413,4 - Avenue de Tervuren,50.837986,4.406459
STIB-0080513,5 - Boulevard Brand Whitlock,50.838076,4.40829
STIB-8091,JOSEPH.-CHARLOTTE,50.840366,4.413792
STIB-8092,JOSEPH.-CHARLOTTE,50.840527,4.414051
STIB-0090114,1 - Square Joséphine-Charlotte,50.839998,4.412977
STIB-0090214,2 - Avenue de Woluwe-St-Lambert,50.840483,4.413659
STIB-0090314,3 - Avenue de Broqueville,50.840195,4.413871
STIB-8101,GRIBAUMONT,50.842506,4.418286
STIB-8102,GRIBAUMONT,50.842594,4.418967
STIB-0100115,1 - Avenue du Roi Chevalier,50.842549,4.417636
STIB-0100215,1 - Avenue du Roi Chevalier,50.842737,4.418133
STIB-0100315,2 - Avenue du Roi Chevalier,50.842252,4.418048
STIB-0100415,3 - Avenue Gribaumont,50.842261,4.417607
STIB-0100515,4 - Avenue Gribaumont,50.842666,4.417736
STIB-8111,TOMBERG,50.844316,4.425819
STIB-8112,TOMBERG,50.844833,4.426369
STIB-0110116,1 - Avenue Paul Hymans,50.843642,4.424822
STIB-0110216,2 - Avenue Paul Hymans,50.844739,4.425831
STIB-0110316,3 - Place du Tomberg,50.844082,4.426611
STIB-0110416,4 - Place du Tomberg,50.843588,4.425517
STIB-8121,ROODEBEEK,50.84753,4.435656
STIB-8122,ROODEBEEK,50.847552,4.436102
STIB-0120117,1 - Parking Roodebeek,50.84779,4.435917
STIB-0120217,2 - Avenue Paul Hymans,50.847897,4.437521
STIB-0120317,3 - Avenue Paul Hymans,50.847609,4.437833
STIB-0120417,4 - Woluwe Shopping Center,50.847716,4.438515
STIB-0120517,5 - Avenue Paul Hymans,50.847197,4.43495
STIB-0120617,6 - Avenue Paul Hymans,50.847413,4.434326
STIB-8131,VANDERVELDE,50.847387,4.446705
STIB-8132,VANDERVELDE,50.847439,4.447303
STIB-0130118,1 - Avenue Emile Vandervelde,50.847692,4.448526
STIB-0130218,2 - Avenue Emile Vandervelde,50.847342,4.447815
STIB-8141,ALMA,50.849881,4.453149
STIB-0140419,R MARTIN V,50.850002,4.453294
STIB-8142,ALMA,50.849991,4.4534
STIB-0140119,3 - Place de l'Alma,50.84998,4.453467
STIB-0140219,2 - Place de la Vecquée,50.849909,4.452832
STIB-8151,CRAINHEM,50.848796,4.458719
STIB-8152,CRAINHEM,50.848478,4.458929
STIB-0150120,1 - Avenue de Wezembeek,50.848781,4.458723
STIB-8161,STOCKEL,50.841872,4.464541
STIB-0160121,1 - Square Stockel,50.841432,4.464686
STIB-0160221,2 - Rue Dominique De Jonghe,50.842592,4.46378
STIB-8162,STOCKEL,50.841854,4.464406
STIB-8201,THIEFFRY,50.83369,4.401677
STIB-8202,THIEFFRY,50.833128,4.401864
STIB-0200131,1 - Pont Fernand Demany,50.833089,4.401756
STIB-0200231,2 - Pont Fernand Demany,50.832738,4.402125
STIB-8211,PETILLON,50.827929,4.403859
STIB-8212,PETILLON,50.827461,4.403987
STIB-0210132,1 - Avenue des Volontaires,50.827209,4.404094
STIB-0210232,2 - Boulevard Louis Schimdt,50.82951,4.40312
STIB-8221,HANKAR,50.821592,4.405618
STIB-8222,HANKAR,50.820889,4.405382
STIB-0220133,1 - Chaussée de Wavre,50.821571,4.405767
STIB-0220233,2 - Chaussée de Wavre,50.821746,4.405347
STIB-0220333,3 - Chaussée de Wavre,50.821949,4.405622
STIB-8231,DELTA,50.818685,4.404406
STIB-8232,DELTA,50.818202,4.404056
STIB-0230134,1 - Parking Delta,50.817405,4.405234
STIB-0230234,2 - Boulevard du Triomphe,50.818579,4.40264
STIB-0230334,3 - Boulevard des Invalides,50.818435,4.404655
STIB-0230434,4 - Rue Jules Cockx,50.817877,4.404314
STIB-0230634,BD INVALIDES/R TROIS PONTS,50.818363,4.404342
STIB-8241,BEAULIEU,50.815128,4.409346
STIB-8242,BEAULIEU,50.81505,4.409977
STIB-0240135,1 - Rue Jules Cockx,50.815143,4.409264
STIB-0240235,2 - Rue Jules Cockx,50.815251,4.408625
STIB-0240335,3 - Avenue des Meuniers,50.815107,4.410413
STIB-0240435,4 - Avenue des Meuniers,50.81499,4.410427
STIB-0240535,5 - Rue Jules Cockx,50.815116,4.408654
STIB-8251,DEMEY,50.813545,4.421005
STIB-8252,DEMEY,50.813192,4.42192
STIB-0250136,1 - Avenue E.Van Nieuwenhuyse,50.813692,4.419436
STIB-0250236,2 - Avenue Louis Dehoux,50.814051,4.420629
STIB-0250336,3 - Avenue Louis Dehoux,50.813331,4.422501
STIB-0250436,4 - Avenue Louis Dehoux,50.813385,4.422416
STIB-0250536,5 - Avenue E.Van Nieuwenhuyse,50.812954,4.421422
STIB-8261,HERRMANN-DEBROUX,50.812195,4.428503
STIB-8262,HERRMANN-DEBROUX,50.812243,4.429236
STIB-0260137,1 - Avenue Herrmann-Debroux,50.812123,4.428317
STIB-0260237,2 - Avenue Herrmann-Debroux,50.812555,4.428317
STIB-8271,SAINTE-CATHERINE,50.852347,4.347749
STIB-8272,SAINTE-CATHERINE,50.8519,4.348012
STIB-0270105,1 - Quai au Bois à Brûler,50.851934,4.348232
STIB-0270305,1 - Quai aux Briques,50.851853,4.347863
STIB-0270405,1 - Quai aux Briques,50.852581,4.347365
STIB-0270505,1 - Quai aux Briques,50.853165,4.346953
STIB-0270605,1 - Quai au Bois à Brûler,50.852949,4.347536
STIB-8281,COMTE DE FLANDRE,50.854968,4.340056
STIB-8282,COMTE DE FLANDRE,50.854705,4.340542
STIB-0280104,1 - Rue du Comte de Flandre,50.855258,4.339383
STIB-0280204,2 - Rue Sainte-Marie,50.854351,4.341457
STIB-8291,ETANGS NOIRS,50.857096,4.332019
STIB-8292,ETANGS NOIRS,50.857125,4.333143
STIB-0290103,1 - Place des Étangs Noirs,50.857018,4.33292
STIB-0290203,2 - Chaussée de Gand,50.856901,4.331641
STIB-8301,TRONE,50.840792,4.366343
STIB-8302,TRONE,50.841001,4.366499
STIB-0300147,1 - Rue du Luxembourg,50.840681,4.366097
STIB-0300247,2 - Rue Montoyer,50.841885,4.367091
STIB-8311,PORTE DE NAMUR,50.838022,4.361236
STIB-8312,PORTE DE NAMUR,50.838185,4.361699
STIB-0310146,1 - Chaussée d'Ixelles,50.838163,4.361725
STIB-0310246,2 - Avenue de la Toison d'Or,50.837921,4.361157
STIB-0310346,3 - Boulevard de Waterloo,50.838936,4.361512
STIB-0310446,4 - Boulevard du Régent,50.839026,4.361682
STIB-0310546,5 - Place du Champ de Mars,50.838748,4.363187
STIB-0310646,6 - Square du Bastion,50.838154,4.362307
STIB-8321,LOUISE,50.835061,4.35424
STIB-8322,LOUISE,50.835176,4.354622
STIB-0320145,1 - Avenue Louise,50.835592,4.355692
STIB-0320245,2 - Avenue Louise,50.835295,4.355181
STIB-0320345,3 - Boulevard de Waterloo,50.836131,4.355124
STIB-0320445,4 - Boulevard de Waterloo,50.83632,4.35555
STIB-0370545,5 - Place Louise,50.835772,4.354925
STIB-8331,HOTEL DES MONNAIES,50.833229,4.348571
STIB-8332,HOTEL DES MONNAIES,50.833309,4.349219
STIB-0330144,1 - Boulevard de Waterloo,50.833946,4.349829
STIB-0330244,2 - Avenue de la Toison d'Or,50.833658,4.350923
STIB-0330344,3 - Avenue Henri Jaspar,50.833389,4.35027
STIB-0330444,4 - Boulevard de Waterloo,50.833766,4.349432
STIB-8341,PORTE DE HAL,50.833941,4.343077
STIB-8342,PORTE DE HAL,50.833713,4.343513
STIB-0340143,1 - Rue César de Paepe,50.833522,4.342831
STIB-0340243,2 - Boulevard du Midi,50.833774,4.343527
STIB-0340343,3 - Chaussée de Forest,50.832605,4.342335
STIB-0340443,4 - Avenue de la Porte de Hal,50.832713,4.343641
STIB-8351,GARE DU MIDI,50.83627,4.338166
STIB-8352,GARE DU MIDI,50.836258,4.33847
STIB-0350142,1 - Avenue Fonsny,50.835948,4.337833
STIB-0350242,2 - Gare SNCB,50.836766,4.336583
STIB-0350642,6 - Boulevard de l'Europe,50.837629,4.336781
STIB-0350742,7 - Avenue Fonsny,50.83602,4.338656
STIB-8361,CLEMENCEAU,50.84082,4.331202
STIB-8362,CLEMENCEAU,50.84069,4.331467
STIB-0360141,1 - Rue de la Clinique,50.840621,4.331299
STIB-0360241,2 - Chaussée de Mons,50.841807,4.33012
STIB-8371,DELACROIX,50.845158,4.324324
STIB-8372,DELACROIX,50.844982,4.324744
STIB-0370140,1 - Rue Léon Delacroix,50.845293,4.324892
STIB-0370340,3 - Quai Fernand Demets,50.845006,4.325275
STIB-0370440,4 - Quai de l'Industrie,50.844727,4.325787
STIB-8381,GARE DE L'OUEST,50.849014,4.32149
STIB-8382,GARE DE L'OUEST,50.848922,4.321442
STIB-8401,ARTS-LOI,50.84544,4.368744
STIB-8402,ARTS-LOI,50.845572,4.36886
STIB-8411,MADOU,50.849728,4.369174
STIB-8412,MADOU,50.849916,4.369168
STIB-0410148,1 - Place Madou,50.848897,4.369718
STIB-0410248,2 - Boulevard Bischoffsheim,50.85029,4.368397
STIB-0410348,3 - Rue des Cultes,50.850425,4.368355
STIB-0410448,4 - Place Madou,50.849814,4.369491
STIB-8421,BOTANIQUE,50.85399,4.365557
STIB-8422,BOTANIQUE,50.854096,4.365291
STIB-0420149,1 - Rue Royale,50.853598,4.366153
STIB-0420349,3 - Boulevard du Jardin Botanique,50.85305,4.365216
STIB-8431,ROGIER,50.855412,4.358416
STIB-8432,ROGIER,50.85556,4.358317
STIB-0430150,1 - Boulevard du Jardin Botanique,50.855072,4.35847
STIB-0430250,2 - Boulevard Adolphe Max,50.855369,4.357732
STIB-0430350,3 - Boulevard Adolphe Max,50.855162,4.357533
STIB-0430450,1 - Boulevard du Jardin Botanique,50.854893,4.359124
STIB-0430550,1 - City 2,50.854839,4.358399
STIB-0430650,8 - Place Charles Rogier,50.855567,4.358754
STIB-0430750,7 - Place Charles Rogier,50.855953,4.358754
STIB-0430850,4 - Avenue du Boulevard,50.855953,4.357561
STIB-0430950,9 - Manhattan center,50.85616,4.358101
STIB-0431050,3 - Boulevard Adolphe Max,50.855257,4.357899
STIB-0431150,2 - Boulevard Adolphe Max,50.855162,4.357689
STIB-8441,YSER,50.857226,4.351501
STIB-8442,YSER,50.857321,4.351197
STIB-0440151,1 - Boulevard Baudouin,50.857058,4.352902
STIB-0440251,2 - Chaussée d'Anvers,50.857175,4.35242
STIB-0440351,3 - Porte d'Anvers,50.8566,4.352633
STIB-0440451,4 - Boulevard d'Anvers,50.857409,4.350204
STIB-0440551,5 - Boulevard d'Anvers,50.857516,4.349877
STIB-0440651,6 - Parc Maximilien,50.857957,4.350246
STIB-8461,RIBAUCOURT,50.860406,4.339753
STIB-8462,RIBAUCOURT,50.860516,4.339485
STIB-0460152,1 - Boulevard Léopold II,50.860813,4.338286
STIB-0460252,1 - Rue de Ribaucourt,50.860014,4.341262
STIB-8471,ELISABETH,50.862859,4.33142
STIB-8472,ELISABETH,50.863138,4.330743
STIB-8641,ERASME,50.815223,4.266114
STIB-8642,ERASME,50.815237,4.267327
STIB-7640122,1 - Route de Lennik,50.815503,4.268103
STIB-7640222,2 - Route de Lennik,50.815144,4.268231
STIB-7640322,3 - Hôpital Erasme,50.815142,4.266188
STIB-8651,EDDY MERCKX,50.816767,4.280609
STIB-8652,EDDY MERCKX,50.816504,4.281547
STIB-7650123,1 - Boulevard Josse Leemans,50.816494,4.281794
STIB-7650223,2 - Route de Lennik,50.816609,4.279821
STIB-8661,CERIA,50.816162,4.289054
STIB-8662,CERIA,50.816451,4.290203
STIB-7660124,1 - Chaussée de Mons,50.816761,4.290734
STIB-7660224,2 - Parking CERIA,50.815743,4.288323
STIB-8671,LA ROUE,50.82092,4.293693
STIB-8672,LA ROUE,50.821263,4.294043
STIB-7670125,1 - Chaussée de Mons,50.820538,4.293523
STIB-7670225,2 - Chaussée de Mons,50.821734,4.294287
STIB-8681,BIZET,50.824934,4.297078
STIB-8682,BIZET,50.825167,4.297644
STIB-7680126,1 - Place Bizet,50.825215,4.297873
STIB-8691,VEEWEYDE,50.829391,4.300578
STIB-8692,VEEWEYDE,50.829611,4.300732
STIB-7690127,1 - Avenue Gounod,50.830188,4.300846
STIB-7690227,2 - Place Verdi,50.828345,4.2995
STIB-8701,SAINT-GUIDON,50.834649,4.305052
STIB-8702,SAINT-GUIDON,50.834928,4.305314
STIB-7700128,1 - Cours Saint-Guidon,50.83483,4.305595
STIB-7700228,2 - Cours Saint-Guidon,50.834848,4.306277
STIB-8711,AUMALE,50.839462,4.312081
STIB-8712,AUMALE,50.839675,4.312518
STIB-7710129,1 - Square E. Vander Bruggen,50.839328,4.312645
STIB-7710229,2 - Place du Repos,50.83993,4.31202
STIB-8721,JACQUES BREL,50.843785,4.318032
STIB-8722,JACQUES BREL,50.843982,4.318166
STIB-7720130,1 - Avenue Norbert Gille,50.842845,4.317781
STIB-7720230,2 - Avenue Norbert Gille,50.842512,4.317185
STIB-7720330,3 - Boulevard Jules Graindor,50.845237,4.318389
STIB-7720430,4 - Boulevard Jules Graindor,50.844652,4.318176
STIB-8731,GARE DE L'OUEST,50.848584,4.320673
STIB-8732,GARE DE L'OUEST,50.848979,4.321096
STIB-8733,GARE DE L'OUEST,50.848995,4.320946
STIB-7730101,1 - Avenue Joseph Baeck,50.848943,4.320479
STIB-7730501,5 - Rue Verheyden,50.848609,4.320686
STIB-7730601,6 - Chaussée de Ninove,50.848636,4.320433
STIB-8741,BEEKKANT,50.853111,4.322763
STIB-8742,BEEKKANT,50.853386,4.322974
STIB-7740102,1 - Rue Dubois-Thorn,50.853644,4.322939
STIB-7740202,2 - Rue Alphonse Vandenpeereboom,50.853312,4.3246
STIB-8743,BEEKKANT,50.853428,4.322773
STIB-8744,BEEKKANT,50.85335,4.323113
STIB-8753,OSSEGHEM,50.857115,4.325218
STIB-8754,OSSEGHEM,50.85685,4.325246
STIB-7750139,1 - Chaussée de Gand,50.85724,4.324938
STIB-7750239,2 - Avenue Mahatma Gandhi,50.857402,4.324994
STIB-8763,SIMONIS,50.863645,4.330848
STIB-8764,SIMONIS,50.86312,4.330479
STIB-0470138,1 - Boulevard Léopold II,50.863445,4.330997
STIB-0470238,2 - Rue de l'Armistice,50.863625,4.331196
STIB-0470338,3 - Rue de l'Armistice,50.86269,4.329918
STIB-0470438,4 - Boulevard Léopold II,50.862851,4.330131
STIB-0470638,6 - Place Simonis,50.863435,4.328369
STIB-0470738,6 - Place Simonis,50.864047,4.328866
STIB-8773,BELGICA,50.868525,4.33685
STIB-7770154,1 - Boulevard Belgica,50.867797,4.336051
STIB-7770254,2 - Boulevard Belgica,50.867438,4.335469
STIB-8774,BELGICA,50.868474,4.336964
STIB-8783,PANNENHUIS,50.873666,4.343031
STIB-7780155,1 - Rue Charles Demeer,50.872815,4.3421
STIB-8784,PANNENHUIS,50.873614,4.343137
STIB-8793,BOCKSTAEL,50.879149,4.347845
STIB-7790156,1 - Rue Léopold I,50.877913,4.348491
STIB-7790256,2 - Place Emile Bockstael,50.877787,4.347567
STIB-7790356,3 - Boulevard Emile Bockstael,50.879477,4.347567
STIB-7790456,4 - Rue du Champ de la Couronne,50.880205,4.347254
STIB-7790556,5 - Rue des Artistes,50.88008,4.348007
STIB-8794,BOCKSTAEL,50.879152,4.347993
STIB-8803,STUYVENBERGH,50.885588,4.342629
STIB-7800157,1 - Boulevard de Smet de Naeyer,50.886227,4.342306
STIB-7800257,4 - Avenue Houba-de Strooper,50.885796,4.342178
STIB-7800357,3 - Boulevard de Smet de Naeyer,50.886119,4.341496
STIB-7800457,2 - Avenue Houba-de Strooper,50.886425,4.342135
STIB-8804,STUYVENBERGH,50.88564,4.342738
STIB-8813,HOUBA-BRUGMANN,50.889549,4.337629
STIB-7810158,1 - Avenue Houba-de Strooper,50.889921,4.336803
STIB-7810258,2 - Rue du Heysel,50.890415,4.33713
STIB-8814,HOUBA-BRUGMANN,50.8896,4.337736
STIB-8823,HEYSEL,50.897076,4.335408
STIB-7820159,1 - Avenue Impératrice Charlotte,50.896896,4.336514
STIB-7820259,2 - Avenue des Athlètes,50.896915,4.337424
STIB-7820359,3 - Esplanade,50.896699,4.336813
STIB-7820459,4 - Esplanade,50.896888,4.337353
STIB-8824,HEYSEL,50.897198,4.335515
STIB-8825,HEYSEL,50.897102,4.33543
STIB-8833,ROI BAUDOUIN,50.896371,4.328009
STIB-8834,ROI BAUDOUIN,50.89646,4.327959
STIB-7830160,1 - Avenue Impératrice Charlotte,50.89658,4.329137
STIB-7830260,2 - Avenue Houba de Strooper,50.896444,4.328555
STIB-7830360,3 - Avenue des Citronniers,50.896111,4.326707
STIB-9023B,RUE TRAVERSIERE,50.854136,4.369269
STIB-9025,WTC,50.861751,4.356097
STIB-9047,STIENON,50.889855,4.328816
STIB-9051F,HEYSEL,50.896804,4.337345
STIB-9056F,HEYSEL,50.896415,4.338161
STIB-9059,HEILIGENBORRE,50.789581,4.420431
STIB-9060,QUETELET,50.85255,4.369293
STIB-9064,RUE TRAVERSIERE,50.855234,4.368981
STIB-9103,SQ. DU CENTENAIRE,50.876241,4.317873
STIB-9164,MARMOTTE,50.83677,4.498038
STIB-9169,VIER HUISKENS,50.853235,4.501137
STIB-9291,DAILLY,50.852818,4.387149
STIB-9292,SAINT-VINCENT,50.880967,4.401719
STIB-9296,DAILLY,50.853165,4.386831
STIB-9311,JULES BORDET,50.870901,4.418774
STIB-9561,VIER HUISKENS,50.853434,4.500712
STIB-9600B,BRUSSELS AIRPORT,50.898149,4.481761
STIB-9606,ENNEPETAL,50.919556,4.406551
STIB-9607,TWEE LEEUWENWEG,50.916874,4.402265
STIB-9608,VTM,50.914183,4.39907
STIB-9631,ENNEPETAL,50.919385,4.408232
STIB-9632,TWEE LEEUWENWEG,50.916875,4.402106
STIB-9634,VTM,50.91417,4.397798
STIB-9651,KERK RUISBROEK,50.789937,4.298511
STIB-9652,RUISBROEK CENTRUM,50.786863,4.296658
STIB-9654,KAPEL RUISBROEK,50.781484,4.289118
STIB-9655,VOETBALCLUB,50.779679,4.286436
STIB-9657,WATERBURY,50.770704,4.278427
STIB-9658,LOT STATION,50.765858,4.273673
STIB-9659,STATION LOT,50.767033,4.275008
STIB-9660,SPORTCENTRUM,50.784025,4.292617
STIB-9661,LAEKEBEEK,50.774131,4.281374
STIB-9677,WATERBURY,50.771319,4.279084
STIB-9679,VOETBALCLUB,50.779512,4.286327
STIB-9680,KAPEL RUISBROEK,50.781303,4.288971
STIB-9681,LAEKEBEEK,50.774003,4.281352
STIB-9682,RUISBROEK CENTRUM,50.786366,4.29607
STIB-9683,KERK RUISBROEK,50.790324,4.299536
STIB-9685,SPORTCENTRUM,50.784229,4.293069
STIB-9701,KERK MACHELEN,50.912789,4.435476
STIB-9702,RAEDEMAEKERS,50.908114,4.431682
STIB-9703,KASTEEL BEAULIEU,50.902928,4.427401
STIB-9725,KASTEEL BEAULIEU,50.902827,4.427601
STIB-9726,RAEDEMAEKERS,50.907328,4.432775
STIB-9727,PARKSTRAAT,50.910196,4.439199
STIB-9728,KONINGIN FABIOLA,50.911397,4.43972
STIB-9729,PELLENBERG,50.914276,4.435643
STIB-9753,BLOKKEN,50.921767,4.428813
STIB-9755,BICOQUE,50.912118,4.418122
STIB-9756,DIEGEMSTRAAT,50.907677,4.414105
STIB-9776,DIEGEMSTRAAT,50.907073,4.414178
STIB-9777,BICOQUE,50.912115,4.418529
STIB-9778,VIER FONTEINEN,50.915595,4.421979
STIB-9784B,VILVOORDE STATION,50.924502,4.43192
STIB-9851,LENNEKE MARE,50.856374,4.450134
STIB-9853,HOF TER MUSSCHEN,50.854452,4.447756
STIB-9876,LENNEKE MARE,50.856481,4.450342
STIB-9946,HAREN,50.893058,4.422934
STIB-9952G,FLAGEY,50.826431,4.372295
STIB-9959F,CHURCHILL,50.811688,4.354123
STIB-9963F,CHURCHILL,50.811841,4.354222
STIB-9969F,CHURCHILL,50.811985,4.353655
STIB-9972F,DIEWEG,50.796526,4.348173
STIB-9983,MEUDON,50.84476,4.417568
STIB-9986F,CHURCHILL,50.812075,4.35374
STIB-9996,MONTGOMERY,50.837483,4.406117
STIB-61,ALBERT,50.822303,4.343561
STIB-19,ALMA,50.849991,4.4534
STIB-65,ANNEESSENS,50.84449,4.345736
STIB-9,ARTS-LOI,50.845333,4.36962
STIB-29,AUMALE,50.839675,4.312518
STIB-35,BEAULIEU,50.81505,4.409977
STIB-2,BEEKKANT,50.853386,4.322974
STIB-54,BELGICA,50.868525,4.33685
STIB-26,BIZET,50.825167,4.297644
STIB-56,BOCKSTAEL,50.879149,4.347845
STIB-70,BOILEAU,50.832955,4.405187
STIB-49,BOTANIQUE,50.854096,4.365291
STIB-66,BOURSE,50.848086,4.349455
STIB-24,CERIA,50.816451,4.290203
STIB-41,CLEMENCEAU,50.84069,4.331467
STIB-4,COMTE DE FLANDRE,50.854705,4.340542
STIB-20,CRAINHEM,50.848478,4.458929
STIB-6,DE BROUCKERE,50.849821,4.352486
STIB-40,DELACROIX,50.844982,4.324744
STIB-34,DELTA,50.818202,4.404056
STIB-36,DEMEY,50.813192,4.42192
STIB-68,DIAMANT,50.848931,4.402428
STIB-23,EDDY MERCKX,50.816504,4.281547
STIB-53,ELISABETH,50.863138,4.330743
STIB-22,ERASME,50.815237,4.267327
STIB-3,ETANGS NOIRS,50.857125,4.333143
STIB-7,GARE CENTRALE,50.846349,4.358776
STIB-1,GARE DE L'OUEST,50.848995,4.320946
STIB-42,GARE DU MIDI,50.836258,4.33847
STIB-67,GARE DU NORD,50.860718,4.3605
STIB-69,GEORGES HENRI,50.843453,4.405598
STIB-15,GRIBAUMONT,50.842594,4.418967
STIB-33,HANKAR,50.820889,4.405382
STIB-37,HERRMANN-DEBROUX,50.812243,4.429236
STIB-59,HEYSEL,50.897076,4.335408
STIB-62,HORTA,50.826043,4.345887
STIB-44,HOTEL DES MONNAIES,50.833309,4.349219
STIB-58,HOUBA-BRUGMANN,50.889549,4.337629
STIB-30,JACQUES BREL,50.843982,4.318166
STIB-14,JOSEPH.-CHARLOTTE,50.840527,4.414051
STIB-25,LA ROUE,50.821263,4.294043
STIB-64,LEMONNIER,50.840399,4.341408
STIB-45,LOUISE,50.835176,4.354622
STIB-48,MADOU,50.849916,4.369168
STIB-10,MAELBEEK,50.843654,4.377588
STIB-12,MERODE,50.839363,4.398282
STIB-13,MONTGOMERY,50.837806,4.407955
STIB-39,OSSEGHEM,50.85685,4.325246
STIB-55,PANNENHUIS,50.873666,4.343031
STIB-8,PARC,50.845688,4.362979
STIB-63,PARVIS ST-GILLES,50.829944,4.346011
STIB-32,PETILLON,50.827461,4.403987
STIB-43,PORTE DE HAL,50.833713,4.343513
STIB-46,PORTE DE NAMUR,50.838185,4.361699
STIB-52,RIBAUCOURT,50.860516,4.339485
STIB-50,ROGIER,50.85556,4.358317
STIB-60,ROI BAUDOUIN,50.89646,4.327959
STIB-17,ROODEBEEK,50.847552,4.436102
STIB-28,SAINT-GUIDON,50.834928,4.305314
STIB-5,SAINTE-CATHERINE,50.8519,4.348012
STIB-11,SCHUMAN,50.842756,4.381829
STIB-38,SIMONIS,50.86312,4.330479
STIB-21,STOCKEL,50.841872,4.464541
STIB-57,STUYVENBERGH,50.885588,4.342629
STIB-31,THIEFFRY,50.833128,4.401864
STIB-16,TOMBERG,50.844833,4.426369
STIB-47,TRONE,50.841001,4.366499
STIB-18,VANDERVELDE,50.847439,4.447303
STIB-27,VEEWEYDE,50.829611,4.300732
STIB-51,YSER,50.857321,4.351197
